src_id,station_name,station_file_name,historic_county,authority,station_latitude,station_longitude,station_elevation,first_year,last_year
00001,FOULA,foula,shetland,Met Office,60.154,-2.074,22,1989,2003
00002,FOULA NO 2,foula-no-2,shetland,Met Office,60.11,-2.065,22,1985,2016
00003,FAIR ISLE,fair-isle,shetland,Met Office,59.526,-1.63,57,1974,2023
00004,SUMBURGH,sumburgh,shetland,Met Office,59.879,-1.299,7,1979,1996
00005,HAMNAVOE,hamnavoe,shetland,Met Office,60.104,-1.333,21,1972,1972
00006,SCATSTA,scatsta,shetland,Met Office,60.439,-1.308,15,1974,1979
00007,COLLAFIRTH,collafirth,shetland,Met Office,60.533,-1.391,228,1983,1991
00009,LERWICK,lerwick,shetland,Met Office,60.139,-1.185,82,1921,2023
00010,SELLA NESS,sella-ness,shetland,Met Office,60.447,-1.278,7,1993,2019
00011,MUCKLE HOLM,muckle-holm,shetland,Met Office,60.581,-1.266,20,1993,2004
00012,BALTASOUND NO 2,baltasound-no-2,shetland,Met Office,60.748,-0.856,15,1989,2023
00013,BALTASOUND,baltasound,shetland,Met Office,60.759,-0.888,24,1914,1995
00014,MUCKLE FLUGGA,muckle-flugga,shetland,Met Office,60.856,-0.886,53,1988,1995
00016,NORTH RONA ISLAND,north-rona-island,orkney,Met Office,59.124,-5.827,98,1990,2009
00017,SULE SKERRY,sule-skerry,orkney,Met Office,59.082,-4.405,12,1968,2019
00019,RACKWICK,rackwick,orkney,Met Office,58.873,-3.387,18,1989,2008
00020,STENNESS,stenness,orkney,Met Office,58.982,-3.223,23,1972,1975
00023,KIRKWALL,kirkwall,orkney,Met Office,58.953,-2.901,26,1957,2023
00024,WEYLAND,weyland,orkney,Met Office,58.986,-2.948,24,1977,1979
00025,"NORTH RONALDSAY, GERBO",north-ronaldsay-gerbo,orkney,Met Office,59.361,-2.415,11,1987,1998
00026,DOUNREAY,dounreay,caithness,Met Office,58.579,-3.739,21,1972,1983
00028,"BERRIEDALE, LANGWELL",berriedale-langwell,caithness,Met Office,58.18,-3.53,67,1981,1986
00030,SCRABSTER HARBOUR,scrabster-harbour,caithness,Met Office,58.612,-3.547,10,1994,2001
00031,LYBSTER,lybster,caithness,Met Office,58.311,-3.285,85,1993,2003
00032,WICK AIRPORT,wick-airport,caithness,Met Office,58.454,-3.09,36,1968,2023
00033,KEISS,keiss,caithness,Met Office,58.542,-3.11,30,1972,1985
00034,JOHN O GROATS,john-o-groats,caithness,Met Office,58.635,-3.064,30,1972,1972
00035,GEISGEIL,geisgeil,sutherland,Met Office,58.319,-5.126,12,1977,1980
00036,DUARTMORE BRIDGE,duartmore-bridge,sutherland,Met Office,58.289,-5.072,30,1980,2004
00037,CAPE WRATH,cape-wrath,sutherland,Met Office,58.625,-5.0,112,1957,1997
00038,ACHFARY,achfary,sutherland,Met Office,58.311,-4.916,46,2006,2023
00039,ACHANY NO 2,achany-no-2,sutherland,Met Office,57.981,-4.427,107,1977,1982
00040,CASSLEY,cassley,sutherland,Met Office,58.168,-4.727,99,1974,2023
00043,LAIRG NO 2,lairg-no-2,sutherland,Met Office,58.019,-4.407,91,1972,2000
00044,ALTNAHARRA NO 2,altnaharra-no-2,sutherland,Met Office,58.288,-4.442,81,1993,2023
00046,STRATHY 1,strathy-1,sutherland,Met Office,58.52,-4.01,38,1972,1976
00047,STRATHY POINT,strathy-point,caithness,Met Office,58.598,-4.018,32,1985,1997
00048,"KINBRACE, HATCHERY",kinbrace-hatchery,sutherland,Met Office,58.23,-3.922,103,1979,2023
00050,STRATHY EAST,strathy-east,sutherland,Met Office,58.561,-3.992,68,1993,2023
00051,KNEEP,kneep,western-isles,Met Office,58.222,-6.948,5,1983,1987
00052,AULTBEA NO 2,aultbea-no-2,ross-and-cromarty,Met Office,57.859,-5.633,11,1986,2023
00054,STORNOWAY AIRPORT,stornoway-airport,western-isles,Met Office,58.213,-6.319,15,1957,2023
00055,BUTT OF LEWIS,butt-of-lewis,western-isles,Met Office,58.516,-6.262,16,1987,1998
00056,BALMACARA HOUSE,balmacara-house,ross-and-cromarty,Met Office,57.286,-5.652,4,1972,1978
00058,DIABAIG,diabaig,ross-and-cromarty,Met Office,57.579,-5.692,60,1982,2010
00060,POOLEWE,poolewe,ross-and-cromarty,Met Office,57.775,-5.598,6,1972,2023
00061,RUDH RE,rudh-re,ross-and-cromarty,Met Office,57.858,-5.813,16,1968,1977
00062,"ACHNASHELLACH, LAIR",achnashellach-lair,ross-and-cromarty,Met Office,57.484,-5.32,40,1982,1984
00063,INVERPOLLY,inverpolly,ross-and-cromarty,Met Office,58.068,-5.267,14,1972,1997
00064,PLOCKTON,plockton,ross-and-cromarty,Met Office,57.337,-5.653,12,1979,2019
00065,ACHNASHELLACH,achnashellach,ross-and-cromarty,Met Office,57.49,-5.275,67,1926,1982
00066,KINLOCHEWE,kinlochewe,ross-and-cromarty,Met Office,57.613,-5.306,25,1953,2023
00067,LOCH GLASCARNOCH,loch-glascarnoch,ross-and-cromarty,Met Office,57.725,-4.895,269,1992,2023
00068,KNOCKANROCK,knockanrock,ross-and-cromarty,Met Office,58.031,-5.072,244,1972,1998
00069,CLUANIE INN,cluanie-inn,ross-and-cromarty,Met Office,57.156,-5.181,223,1994,1995
00070,STRATHCONON,strathconon,ross-and-cromarty,Met Office,57.555,-4.794,107,1972,1981
00071,CRAIGDARROCH,craigdarroch,ross-and-cromarty,Met Office,57.578,-4.607,38,1973,1979
00072,CONTIN,contin,ross-and-cromarty,Met Office,57.575,-4.587,29,1972,1976
00074,DINGWALL,dingwall,ross-and-cromarty,Met Office,57.6,-4.447,7,1983,2006
00075,CRANNICH,crannich,ross-and-cromarty,Met Office,57.752,-4.272,197,1985,1988
00076,FORTROSE,fortrose,ross-and-cromarty,Met Office,57.574,-4.093,5,1926,1994
00077,INVERGORDON HARBOUR,invergordon-harbour,ross-and-cromarty,Met Office,57.687,-4.167,3,1985,2001
00078,INVERGORDON,invergordon,ross-and-cromarty,Met Office,57.703,-4.158,15,1979,1982
00079,TAIN RANGE,tain-range,ross-and-cromarty,Met Office,57.819,-3.967,4,1989,2023
00080,TARBATNESS,tarbatness,ross-and-cromarty,Met Office,57.865,-3.776,18,1968,1988
00081,ST KILDA,st-kilda,western-isles,Met Office,57.811,-8.564,30,1982,1990
00082,BARRA (W I),barra-w-i,western-isles,Met Office,57.025,-7.449,3,1987,2007
00083,LOCHBOISDALE,lochboisdale,western-isles,Met Office,57.155,-7.316,6,1986,2003
00084,BENBECULA AIRPORT,benbecula-airport,western-isles,Met Office,57.475,-7.371,6,1957,1996
00085,SCALPAY,scalpay,western-isles,Met Office,57.872,-6.699,18,1979,1994
00086,NEIST POINT,neist-point,inverness-shire,Met Office,57.423,-6.788,21,1983,1989
00087,WATERSTEIN,waterstein,inverness-shire,Met Office,57.436,-6.769,83,1990,2004
00088,HYSKEIR,hyskeir,inverness-shire,Met Office,56.969,-6.681,10,1986,1995
00089,RHUM: KINLOCH,rhum-kinloch,inverness-shire,Met Office,57.014,-6.282,5,1972,2010
00090,SKYE: PRABOST,skye-prabost,inverness-shire,Met Office,57.467,-6.305,67,1982,1986
00091,DUNTULM,duntulm,inverness-shire,Met Office,57.661,-6.363,90,1972,1973
00092,INVERAILORT,inverailort,inverness-shire,Met Office,56.872,-5.67,2,1982,2015
00093,HEASTE,heaste,inverness-shire,Met Office,57.189,-5.894,100,1974,1984
00094,BROADFORD:ISLE OF SKYE,broadford-isle-of-skye,inverness-shire,Met Office,57.239,-5.895,8,1988,1991
00095,EILANREACH,eilanreach,inverness-shire,Met Office,57.199,-5.63,8,1982,2004
00096,ONICH,onich,inverness-shire,Met Office,56.72,-5.224,15,1926,1995
00097,FORT WILLIAM NO 4,fort-william-no-4,inverness-shire,Met Office,56.829,-5.076,20,1984,1993
00101,CORPACH,corpach,inverness-shire,Met Office,56.839,-5.149,8,1972,1980
00102,KILTARLITY,kiltarlity,inverness-shire,Met Office,57.427,-4.497,75,1985,2011
00103,AONACH MOR,aonach-mor,inverness-shire,Met Office,56.822,-4.969,1130,1992,2023
00104,LOCH OICH,loch-oich,inverness-shire,Met Office,57.044,-4.799,37,1974,1976
00105,TULLOCH BRIDGE,tulloch-bridge,inverness-shire,Met Office,56.867,-4.708,249,1989,2023
00107,FORT AUGUSTUS,fort-augustus,inverness-shire,Met Office,57.144,-4.677,21,1914,1997
00108,FOYERS NO 4,foyers-no-4,inverness-shire,Met Office,57.261,-4.484,21,1989,2003
00110,LENTRAN,lentran,inverness-shire,Met Office,57.459,-4.373,146,1975,2023
00111,DALWHINNIE NO 2,dalwhinnie-no-2,inverness-shire,Met Office,56.94,-4.238,351,1973,2023
00112,LAGGANLIA,lagganlia,inverness-shire,Met Office,57.111,-3.891,250,1972,1988
00113,AVIEMORE,aviemore,inverness-shire,Met Office,57.206,-3.828,228,1982,2023
00114,DRUMNADROCHIT,drumnadrochit,inverness-shire,Met Office,57.328,-4.486,53,1990,2023
00115,INVERNESS,inverness,inverness-shire,Met Office,57.486,-4.222,4,1957,2013
00116,DALCROSS,dalcross,inverness-shire,Met Office,57.542,-4.062,11,1977,1993
00117,CAIRNGORM SUMMIT,cairngorm-summit,inverness-shire,Met Office,57.116,-3.643,1237,1984,2023
00118,CAIRNGORM CHAIRLIFT,cairngorm-chairlift,inverness-shire,Met Office,57.133,-3.669,663,1980,2023
00119,COIRE CAS SHEILING,coire-cas-sheiling,inverness-shire,Met Office,57.128,-3.662,762,1972,1976
00120,CAIRNGORM,cairngorm,inverness-shire,Met Office,57.124,-3.645,1090,1972,1976
00121,ACHNAGOICHAN,achnagoichan,inverness-shire,Met Office,57.152,-3.798,305,1972,1975
00122,GLENMORE LODGE,glenmore-lodge,inverness-shire,Met Office,57.164,-3.678,337,1968,1973
00123,TOMATIN,tomatin,inverness-shire,Met Office,57.339,-4.007,311,1973,1992
00125,"TOMATIN, FREEBURN",tomatin-freeburn,inverness-shire,Met Office,57.345,-4.003,290,1993,2002
00126,NAIRN,nairn,nairnshire,Met Office,57.587,-3.893,8,1972,1998
00127,FORRES NO 2,forres-no-2,moray-in-grampian-region,Met Office,57.615,-3.61,5,1976,2002
00128,"GRANTOWN-ON-SPEY, GRAMMAR SCHOOL",grantown-on-spey-grammar-school,moray-in-highland-region,Met Office,57.334,-3.6,218,1993,2000
00130,GRANTOWN-ON-SPEY,grantown-on-spey,moray-in-highland-region,Met Office,57.335,-3.606,220,1972,2007
00131,FORRES,forres,moray-in-grampian-region,Met Office,57.608,-3.597,50,1972,1976
00132,KINLOSS,kinloss,moray-in-grampian-region,Met Office,57.645,-3.563,5,1959,2023
00133,ALDROUGHTY,aldroughty,moray-in-grampian-region,Met Office,57.645,-3.379,30,1976,2000
00134,ROTHES,rothes,moray-in-grampian-region,Met Office,57.532,-3.196,61,1982,1995
00136,ELGIN NO 2,elgin-no-2,moray-in-grampian-region,Met Office,57.65,-3.293,15,1972,1981
00137,LOSSIEMOUTH,lossiemouth,moray-in-grampian-region,Met Office,57.711,-3.323,7,1975,2023
00138,GORDON CASTLE,gordon-castle,banffshire,Met Office,57.621,-3.09,32,1972,1975
00139,CLASHNOIR,clashnoir,banffshire,Met Office,57.282,-3.287,338,1977,1981
00140,GLENLIVET,glenlivet,banffshire,Met Office,57.354,-3.345,213,1968,2008
00141,KEITH,keith,banffshire,Met Office,57.553,-2.949,106,1973,1995
00142,"BANFF, GOLF CLUB",banff-golf-club,banffshire,Met Office,57.661,-2.521,15,1989,2023
00143,BANFF NO 2,banff-no-2,banffshire,Met Office,57.671,-2.523,24,1972,1988
00144,"CORGARFF, CASTLE LODGE",corgarff-castle-lodge,aberdeenshire,Met Office,57.165,-3.23,400,1994,2002
00145,CAIRNWELL,cairnwell,aberdeenshire,Met Office,56.879,-3.421,928,1994,2023
00147,BRAEMAR,braemar,aberdeenshire,Met Office,57.006,-3.398,339,1914,2005
00148,BALMORAL,balmoral,aberdeenshire,Met Office,57.037,-3.22,283,1972,2023
00149,BALLATER FIELD CENTRE,ballater-field-centre,aberdeenshire,Met Office,57.047,-3.043,200,1989,1999
00150,ABOYNE NO 2,aboyne-no-2,aberdeenshire,Met Office,57.076,-2.841,140,1989,2023
00151,DINNET,dinnet,aberdeenshire,Met Office,57.109,-2.916,177,1972,1982
00153,FINZEAN,finzean,kincardineshire,Met Office,57.016,-2.67,133,1982,1988
00154,ALFORD NO 2,alford-no-2,aberdeenshire,Met Office,57.24,-2.686,137,1981,1983
00155,LEITH HALL,leith-hall,aberdeenshire,Met Office,57.356,-2.766,180,1987,2000
00156,GARTLY,gartly,aberdeenshire,Met Office,57.379,-2.795,146,1972,1986
00158,INVERURIE NO 2,inverurie-no-2,aberdeenshire,Met Office,57.274,-2.368,54,1972,1992
00159,FYVIE CASTLE,fyvie-castle,aberdeenshire,Met Office,57.443,-2.39,55,1972,2023
00160,CRAIBSTONE,craibstone,aberdeenshire,Met Office,57.187,-2.215,102,1972,2021
00161,DYCE,dyce,aberdeenshire,Met Office,57.205,-2.205,65,1957,2023
00163,"ABERDEEN, MANNOFIELD RESR",aberdeen-mannofield-resr,aberdeenshire,Met Office,57.128,-2.14,52,1972,2008
00166,FRASERBURGH,fraserburgh,aberdeenshire,Met Office,57.697,-2.003,18,1968,1990
00167,CULTERTY NO 2,culterty-no-2,aberdeenshire,Met Office,57.325,-2.003,3,1974,1999
00168,FOREHILL,forehill,aberdeenshire,Met Office,57.506,-1.844,41,1977,2010
00170,PETERHEAD HARBOUR,peterhead-harbour,aberdeenshire,Met Office,57.502,-1.774,15,1985,2021
00171,FETTERCAIRN (CRAIGMOSTON),fettercairn-craigmoston,kincardineshire,Met Office,56.868,-2.566,95,1984,1987
00173,INCHMARLO,inchmarlo,kincardineshire,Met Office,57.06,-2.542,80,1992,2005
00175,BANCHORY,banchory,kincardineshire,Met Office,57.053,-2.509,94,1972,1982
00176,DURRIS,durris,kincardineshire,Met Office,57.032,-2.404,107,1988,2023
00177,INVERBERVIE NO 2,inverbervie-no-2,kincardineshire,Met Office,56.852,-2.266,134,1992,2023
00178,STONEHAVEN,stonehaven,kincardineshire,Met Office,56.969,-2.207,4,1972,1985
00179,STONEHAVEN NO 2,stonehaven-no-2,kincardineshire,Met Office,56.946,-2.212,85,1985,2000
00181,MYLNEFIELD,mylnefield,angus,Met Office,56.456,-3.07,26,1954,2023
00183,DUNDEE,dundee,angus,Met Office,56.47,-2.94,45,1972,1996
00184,GLAMIS CASTLE NO 2,glamis-castle-no-2,angus,Met Office,56.625,-3.0,62,1972,1973
00185,FORFAR NO 3,forfar-no-3,angus,Met Office,56.683,-2.929,91,1985,1994
00186,FORFAR NO 2,forfar-no-2,angus,Met Office,56.657,-2.775,67,1979,1983
00187,WHITEHILLOCKS,whitehillocks,angus,Met Office,56.906,-2.907,258,1972,2013
00188,BUDDON NESS,buddon-ness,angus,Met Office,56.468,-2.75,5,1972,1973
00189,CARNOUSTIE NO 2,carnoustie-no-2,angus,Met Office,56.507,-2.725,27,1972,1977
00190,BELL ROCK,bell-rock,angus,Met Office,56.434,-2.387,39,1985,1987
00191,ARBROATH,arbroath,angus,Met Office,56.561,-2.573,29,1914,1994
00192,USAN,usan,angus,Met Office,56.681,-2.452,47,1968,1979
00193,MONTROSE,montrose,angus,Met Office,56.746,-2.481,55,1972,1992
00194,CRIANLARICH,crianlarich,perthshire-in-central-region,Met Office,56.419,-4.659,174,1974,1976
00195,TYNDRUM NO 3,tyndrum-no-3,perthshire-in-central-region,Met Office,56.419,-4.661,168,1990,2023
00196,LOCH RANNOCH POWER HOUSE,loch-rannoch-power-house,perthshire-in-tayside-region,Met Office,56.693,-4.401,206,1999,2005
00197,ABERFOYLE,aberfoyle,perthshire-in-central-region,Met Office,56.174,-4.369,28,1972,2001
00199,LOCH VENACHAR,loch-venachar,perthshire-in-central-region,Met Office,56.23,-4.263,84,1982,2006
00201,BALQUHIDDER NO 2,balquhidder-no-2,perthshire-in-central-region,Met Office,56.355,-4.397,136,1982,1992
00202,KILLIN,killin,perthshire-in-central-region,Met Office,56.484,-4.363,116,1972,1989
00204,CALLANDER NO 2,callander-no-2,perthshire-in-central-region,Met Office,56.245,-4.206,107,1972,1981
00205,ARDTALNAIG,ardtalnaig,perthshire-in-tayside-region,Met Office,56.528,-4.112,130,1972,2017
00206,DUNBLANE SECONDARY SCHOOL,dunblane-secondary-school,perthshire-in-central-region,Met Office,56.189,-3.977,80,1974,1974
00207,"DUNBLANE, OLD DOUNE ROAD",dunblane-old-doune-road,perthshire-in-central-region,Met Office,56.187,-3.974,70,1974,1974
00208,DRUMMOND CASTLE,drummond-castle,perthshire-in-tayside-region,Met Office,56.338,-3.877,113,1972,2023
00209,TUMMEL BRIDGE,tummel-bridge,perthshire-in-tayside-region,Met Office,56.706,-4.011,148,1984,1992
00210,DUNDURN,dundurn,perthshire-in-tayside-region,Met Office,56.382,-4.084,85,1975,1975
00211,GLENEAGLES,gleneagles,perthshire-in-tayside-region,Met Office,56.281,-3.749,152,1972,1976
00212,STRATHALLAN AIRFIELD,strathallan-airfield,perthshire-in-tayside-region,Met Office,56.326,-3.729,35,1989,2023
00213,PITLOCHRY,pitlochry,perthshire-in-tayside-region,Met Office,56.709,-3.725,144,1972,1975
00214,FASKALLY,faskally,perthshire-in-tayside-region,Met Office,56.718,-3.77,94,1953,2023
00215,FEALAR LODGE,fealar-lodge,perthshire-in-tayside-region,Met Office,56.901,-3.629,560,1987,1996
00217,PERTH CREMATORIUM,perth-crematorium,perthshire-in-tayside-region,Met Office,56.412,-3.478,30,1980,1981
00218,ASHINTULLY CASTLE,ashintully-castle,perthshire-in-tayside-region,Met Office,56.735,-3.471,341,1972,1976
00219,KINDROGAN,kindrogan,perthshire-in-tayside-region,Met Office,56.748,-3.547,259,1972,2019
00220,STRATHALLAN SCHOOL,strathallan-school,perthshire-in-tayside-region,Met Office,56.35,-3.474,41,1972,2007
00223,PERTH AERODROME,perth-aerodrome,perthshire-in-tayside-region,Met Office,56.437,-3.372,118,1994,2000
00226,KINROSS,kinross,kinross-shire,Met Office,56.214,-3.413,116,1972,2023
00227,PITREAVIE NO 2,pitreavie-no-2,fife,Met Office,56.048,-3.419,40,1968,1985
00228,BRAEFOOT BAY,braefoot-bay,fife,Met Office,56.043,-3.32,43,1986,2008
00230,KIRKCALDY,kirkcaldy,fife,Met Office,56.108,-3.179,32,1972,1975
00232,"CUPAR, ELMWOOD AG COLLEGE",cupar-elmwood-ag-college,fife,Met Office,56.319,-3.032,42,1973,2018
00235,LEUCHARS,leuchars,fife,Met Office,56.377,-2.862,10,1957,2023
00236,SHANWELL,shanwell,fife,Met Office,56.438,-2.86,4,1981,1992
00237,BELLISTON,belliston,fife,Met Office,56.239,-2.796,82,1972,2016
00238,ST ANDREWS,st-andrews,fife,Met Office,56.34,-2.806,18,1972,1984
00239,FIFE NESS,fife-ness,fife,Met Office,56.279,-2.586,12,1985,2007
00240,BLACKBURN S WKS,blackburn-s-wks,west-lothian-in-lothian-region,Met Office,55.872,-3.589,131,1972,1977
00241,LIVINGSTON NO 2,livingston-no-2,west-lothian-in-lothian-region,Met Office,55.877,-3.544,125,1972,1995
00246,TURNHOUSE,turnhouse,midlothian-in-lothian-region,Met Office,55.951,-3.348,35,1957,1999
00247,"EDINBURGH, EAST CRAIGS",edinburgh-east-craigs,midlothian-in-lothian-region,Met Office,55.948,-3.307,61,1972,2005
00249,PENICUIK,penicuik,midlothian-in-lothian-region,Met Office,55.823,-3.228,185,1946,2022
00250,BUSH HOUSE,bush-house,midlothian-in-lothian-region,Met Office,55.86,-3.208,184,1972,1999
00251,"EDINBURGH, BLACKFORD HILL",edinburgh-blackford-hill,midlothian-in-lothian-region,Met Office,55.923,-3.191,134,1972,2015
00253,"EDINBURGH, ROYAL BOTANIC GARDEN NO 2",edinburgh-royal-botanic-garden-no-2,midlothian-in-lothian-region,Met Office,55.967,-3.212,28,1939,2023
00254,MIDDLETON CAMP,middleton-camp,midlothian-in-lothian-region,Met Office,55.813,-3.01,225,1972,1976
00255,ROSLIN,roslin,midlothian-in-lothian-region,Met Office,55.86,-3.163,152,1972,1979
00257,PATHHEAD,pathhead,east-lothian,Met Office,55.885,-2.94,131,1974,1989
00258,HADDINGTON NO 2,haddington-no-2,east-lothian,Met Office,55.953,-2.781,49,1972,1981
00260,NORTH BERWICK,north-berwick,east-lothian,Met Office,56.058,-2.716,16,1926,1958
00261,BASS ROCK,bass-rock,east-lothian,Met Office,56.076,-2.641,38,1985,1988
00262,NUNRAW ABBEY,nunraw-abbey,east-lothian,Met Office,55.921,-2.652,197,1972,2023
00263,HADDINGTON,haddington,east-lothian,Met Office,55.96,-2.751,41,1982,2001
00264,DUNBAR,dunbar,east-lothian,Met Office,56.004,-2.528,23,1930,2023
00267,BLYTHE,blythe,berwickshire,Met Office,55.737,-2.662,262,1973,2020
00268,CHARTERHALL,charterhall,berwickshire,Met Office,55.709,-2.385,115,1987,2023
00269,MARCHMONT,marchmont,berwickshire,Met Office,55.728,-2.411,152,1914,1980
00270,WHITCHESTER,whitchester,berwickshire,Met Office,55.823,-2.447,255,1972,1989
00272,ST ABBS HEAD,st-abbs-head,berwickshire,Met Office,55.917,-2.139,75,1968,1992
00273,STANHOPE FARM,stanhope-farm,peebleshire,Met Office,55.552,-3.392,226,1972,1990
00274,BLYTH BRIDGE,blyth-bridge,peebleshire,Met Office,55.703,-3.368,253,1972,2006
00275,WEST LINTON,west-linton,peebleshire,Met Office,55.754,-3.356,244,1972,1995
00277,EDDLESTON,eddleston,peebleshire,Met Office,55.711,-3.21,195,1989,1991
00278,GLENTRESS,glentress,peebleshire,Met Office,55.646,-3.139,165,1972,2006
00279,BOWHILL,bowhill,selkirkshire,Met Office,55.541,-2.906,168,1954,2023
00281,GALASHIELS,galashiels,selkirkshire,Met Office,55.621,-2.828,198,1972,2010
00282,WAUCHOPE,wauchope,roxburghshire,Met Office,55.38,-2.653,155,1972,1976
00283,BONCHESTER BRIDGE,bonchester-bridge,roxburghshire,Met Office,55.396,-2.654,146,1976,1983
00284,GREYCROOK,greycrook,roxburghshire,Met Office,55.567,-2.637,76,1972,2004
00285,CARTERHOUSE,carterhouse,roxburghshire,Met Office,55.358,-2.519,308,1992,2018
00286,FLOORS CASTLE,floors-castle,roxburghshire,Met Office,55.603,-2.468,59,1946,2023
00287,KELSO,kelso,roxburghshire,Met Office,55.604,-2.421,34,1972,2003
00288,SOURHOPE,sourhope,roxburghshire,Met Office,55.475,-2.247,221,1972,2004
00289,KIELDER CASTLE,kielder-castle,northumberland,Met Office,55.234,-2.58,201,1972,2023
00290,WARK,wark,northumberland,Met Office,55.075,-2.393,219,1992,1997
00293,REDESDALE,redesdale,northumberland,Met Office,55.253,-2.263,235,1972,2006
00295,HIGH HAYRAKE,high-hayrake,northumberland,Met Office,54.825,-2.26,400,1992,1995
00296,HAYDON BRIDGE NO 2,haydon-bridge-no-2,northumberland,Met Office,54.976,-2.253,82,1972,2000
00298,LANTON,lanton,northumberland,Met Office,55.575,-2.117,59,1993,1996
00299,LETHAMHILL FARM,lethamhill-farm,northumberland,Met Office,55.644,-2.103,76,1976,1978
00300,WALLINGTON,wallington,northumberland,Met Office,55.154,-1.945,150,1994,2023
00301,CHESWICK,cheswick,northumberland,Met Office,55.71,-1.959,30,1993,2001
00302,BERWICK-ON-TWEED,berwick-on-tweed,northumberland,Met Office,55.769,-1.998,23,1972,1974
00303,BERWICK-UPON-TWEED,berwick-upon-tweed,northumberland,Met Office,55.754,-2.033,42,1994,1997
00304,LONGFRAMLINGTON,longframlington,northumberland,Met Office,55.301,-1.806,158,1997,2000
00305,BERWICK GRAMMAR SCHOOL,berwick-grammar-school,northumberland,Met Office,55.776,-2.005,41,1975,1975
00307,NEWCASTLE WEATHER CENTRE,newcastle-weather-centre,tyne-and-wear,Met Office,54.977,-1.598,52,1974,2005
00310,"MORPETH, COCKLE PARK",morpeth-cockle-park,northumberland,Met Office,55.212,-1.685,95,1897,2023
00311,ACKLINGTON,acklington,northumberland,Met Office,55.3,-1.647,42,1968,1975
00313,TYNEMOUTH,tynemouth,tyne-and-wear,Met Office,55.018,-1.417,33,1957,2001
00315,BOULMER,boulmer,northumberland,Met Office,55.421,-1.601,23,1975,2023
00316,SEAHOUSES,seahouses,northumberland,Met Office,55.583,-1.654,11,1963,1979
00317,BURNHOPE,burnhope,durham,Met Office,54.821,-1.715,238,1993,1997
00318,WESTGATE NO 2,westgate-no-2,durham,Met Office,54.741,-2.133,333,1993,2013
00319,BOLTSHOPE PARK,boltshope-park,durham,Met Office,54.821,-2.09,434,1994,2007
00320,HAMSTERLEY NO 2,hamsterley-no-2,tyne-and-wear,Met Office,54.899,-1.808,130,1993,1995
00322,LOW ETHERLEY,low-etherley,durham,Met Office,54.655,-1.74,162,1974,1995
00324,HOUGHALL,houghall,durham,Met Office,54.765,-1.562,37,1972,1978
00326,DURHAM,durham,durham,Met Office,54.768,-1.586,102,1972,2023
00328,MIDDLETON ST GEORGE,middleton-st-george,durham,Met Office,54.513,-1.421,35,1957,1964
00329,WASHINGTON,washington,tyne-and-wear,Met Office,54.895,-1.49,29,1973,1981
00330,SOUTH SHIELDS,south-shields,tyne-and-wear,Met Office,55.003,-1.418,5,1985,2003
00331,HARTBURN GRANGE,hartburn-grange,cleveland,Met Office,54.56,-1.372,31,1972,1990
00332,SUNDERLAND UNIVERSITY,sunderland-university,tyne-and-wear,Met Office,54.904,-1.395,70,1989,2003
00335,TEESMOUTH,teesmouth,cleveland,Met Office,54.64,-1.14,12,1988,1995
00336,HARTLEPOOL,hartlepool,cleveland,Met Office,54.687,-1.209,9,1972,1985
00337,SNAIZEHOLME,snaizeholme,north-yorkshire,Met Office,54.275,-2.263,290,1974,1981
00339,BAINBRIDGE,bainbridge,north-yorkshire,Met Office,54.308,-2.101,210,1991,2023
00340,BOWES NO 2,bowes-no-2,durham,Met Office,54.509,-2.051,292,1994,1996
00341,WYCLIFFE HALL,wycliffe-hall,north-yorkshire,Met Office,54.521,-1.818,120,1989,2000
00342,DISHFORTH AIRFIELD,dishforth-airfield,north-yorkshire,Met Office,54.135,-1.414,33,1957,2016
00346,LINTON ON OUSE,linton-on-ouse,north-yorkshire,Met Office,54.045,-1.251,14,1983,2021
00347,CARLTON-IN-CLEVELAND,carlton-in-cleveland,cleveland,Met Office,54.428,-1.218,103,1991,2023
00349,"YORK, HESLINGTON",york-heslington,north-yorkshire,Met Office,53.953,-1.04,19,1972,1980
00351,AMPLEFORTH,ampleforth,north-yorkshire,Met Office,54.202,-1.085,95,1916,1960
00354,KIRBY MISPERTON,kirby-misperton,north-yorkshire,Met Office,54.198,-0.792,22,1994,2004
00356,PICKERING,pickering,north-yorkshire,Met Office,54.247,-0.781,44,1972,1984
00357,WYKEHAM FOREST,wykeham-forest,north-yorkshire,Met Office,54.281,-0.568,214,1986,1992
00358,FYLINGDALES,fylingdales,north-yorkshire,Met Office,54.359,-0.672,262,1983,2023
00359,WHITBY,whitby,north-yorkshire,Met Office,54.481,-0.626,41,1976,2023
00360,SCARBOROUGH,scarborough,north-yorkshire,Met Office,54.273,-0.423,110,1987,2023
00362,"SCARBOROUGH, MANOR ROAD NUSERIES",scarborough-manor-road-nuseries,north-yorkshire,Met Office,54.28,-0.418,52,1972,1986
00363,SILPHO MOOR,silpho-moor,north-yorkshire,Met Office,54.338,-0.53,203,1972,1986
00364,WHITBY COASTGUARD,whitby-coastguard,north-yorkshire,Met Office,54.49,-0.606,60,1961,2002
00365,AUGHTON RUDDINGS,aughton-ruddings,humberside,Met Office,53.847,-0.887,8,1992,1999
00367,HIGH MOWTHORPE,high-mowthorpe,north-yorkshire,Met Office,54.105,-0.643,175,1972,2023
00369,HULL,hull,humberside,Met Office,53.756,-0.358,2,1903,2010
00370,LECONFIELD,leconfield,humberside,Met Office,53.875,-0.442,7,1959,2023
00373,BRIDLINGTON MRSC,bridlington-mrsc,humberside,Met Office,54.094,-0.176,15,1987,2023
00374,BRIDLINGTON,bridlington,humberside,Met Office,54.1,-0.208,48,1972,1980
00375,BRIDLINGTON CEMETERY,bridlington-cemetery,humberside,Met Office,54.095,-0.196,25,1982,1989
00376,KILNSEA,kilnsea,humberside,Met Office,53.622,0.141,12,1957,1976
00377,SPURN POINT,spurn-point,humberside,Met Office,53.575,0.111,6,1977,1987
00378,EASINGTON NO 2,easington-no-2,humberside,Met Office,53.659,0.116,20,1988,1997
00379,COWDEN,cowden,humberside,Met Office,53.844,-0.103,15,1995,1998
00381,SCAMPTON,scampton,lincolnshire,Met Office,53.307,-0.548,57,1974,2022
00382,NORMANBY HALL,normanby-hall,humberside,Met Office,53.637,-0.659,47,1993,2023
00384,WADDINGTON,waddington,lincolnshire,Met Office,53.175,-0.523,68,1950,2023
00385,LINCOLN,lincoln,lincolnshire,Met Office,53.235,-0.56,6,1972,1982
00386,CRANWELL,cranwell,lincolnshire,Met Office,53.031,-0.504,63,1968,2023
00387,BRIGG,brigg,lincolnshire,Met Office,53.562,-0.489,3,1972,1977
00388,BOURNE,bourne,lincolnshire,Met Office,52.755,-0.318,2,1990,1998
00389,CAISTOR,caistor,lincolnshire,Met Office,53.503,-0.37,21,1972,1982
00390,GIBRALTAR POINT,gibraltar-point,lincolnshire,Met Office,53.095,0.321,3,1989,1989
00391,WALESBY,walesby,lincolnshire,Met Office,53.425,-0.286,115,1994,2005
00392,"KIRTON, HORTICULTURE",kirton-horticulture,lincolnshire,Met Office,52.937,-0.068,4,1974,2009
00393,CONINGSBY,coningsby,lincolnshire,Met Office,53.094,-0.173,6,1978,2023
00394,BINBROOK,binbrook,lincolnshire,Met Office,53.445,-0.202,108,1963,1988
00395,HOLBEACH NO 2,holbeach-no-2,lincolnshire,Met Office,52.873,0.139,3,1986,2023
00396,DRIBY,driby,lincolnshire,Met Office,53.249,0.077,41,1979,1997
00397,COVENHAM,covenham,lincolnshire,Met Office,53.45,0.033,3,1979,1991
00398,CLEETHORPES,cleethorpes,humberside,Met Office,53.552,-0.018,7,1972,1981
00399,"CLEETHORPES, HAVERSTOE PARK",cleethorpes-haverstoe-park,humberside,Met Office,53.55,-0.03,7,1981,2004
00400,SUTTON BRIDGE EXP STA,sutton-bridge-exp-sta,lincolnshire,Met Office,52.76,0.193,4,1972,1979
00401,MANBY,manby,lincolnshire,Met Office,53.361,0.097,13,1957,1974
00402,NORTH COATES NO 2,north-coates-no-2,lincolnshire,Met Office,53.503,0.066,3,1989,1991
00403,SKEGNESS,skegness,lincolnshire,Met Office,53.148,0.346,6,1903,2017
00404,LINCOLN (CANWICK),lincoln-canwick,lincolnshire,Met Office,53.222,-0.505,7,1983,1996
00405,DONNA NOOK NO 2,donna-nook-no-2,lincolnshire,Met Office,53.475,0.153,8,1993,2023
00406,TERRINGTON ST CLEMENT,terrington-st-clement,norfolk,Met Office,52.745,0.288,2,1972,2007
00407,DENVER,denver,norfolk,Met Office,52.583,0.346,3,1978,2023
00408,NORWICH WEATHER CENTRE,norwich-weather-centre,norfolk,Met Office,52.626,1.298,35,1987,2000
00409,MARHAM,marham,norfolk,Met Office,52.651,0.566,21,1957,2023
00411,HUNSTANTON NO 2,hunstanton-no-2,norfolk,Met Office,52.952,0.499,15,1988,2009
00412,"SANTON DOWNHAM, GRIMES GRAVES",santon-downham-grimes-graves,norfolk,Met Office,52.479,0.668,24,1972,1988
00413,SANTON DOWNHAM,santon-downham,suffolk,Met Office,52.459,0.671,6,1988,2023
00414,SOUTH RAYNHAM,south-raynham,norfolk,Met Office,52.771,0.778,68,1989,2000
00415,WEST RAYNHAM,west-raynham,norfolk,Met Office,52.786,0.737,73,1968,1969
00417,BRESSINGHAM,bressingham,norfolk,Met Office,52.387,1.052,35,1987,1991
00418,"EAST DEREHAM, NEATHERD",east-dereham-neatherd,norfolk,Met Office,52.68,0.959,53,1979,1983
00419,EAST DEREHAM,east-dereham,norfolk,Met Office,52.685,0.949,53,1972,1976
00420,"MELTON CONSTABLE, STODY ESTATE",melton-constable-stody-estate,norfolk,Met Office,52.859,1.073,54,1993,2003
00421,WEYBOURNE,weybourne,norfolk,Met Office,52.949,1.122,21,1986,2023
00422,MORLEY ST BOTOLPH,morley-st-botolph,norfolk,Met Office,52.555,1.039,46,1972,2005
00423,COSTESSEY,costessey,norfolk,Met Office,52.663,1.216,18,1972,1975
00425,CROMER COASTGUARD,cromer-coastguard,norfolk,Met Office,52.928,1.312,44,1989,1994
00426,CROMER,cromer,norfolk,Met Office,52.934,1.291,37,1902,2023
00427,SCOLE,scole,norfolk,Met Office,52.365,1.158,27,1972,1980
00429,COLTISHALL,coltishall,norfolk,Met Office,52.757,1.351,17,1962,2006
00430,DITCHINGHAM NO 2,ditchingham-no-2,norfolk,Met Office,52.473,1.429,26,1992,1999
00431,BURLINGHAM,burlingham,norfolk,Met Office,52.637,1.506,27,1972,1976
00432,GORLESTON,gorleston,norfolk,Met Office,52.572,1.738,4,1957,2016
00433,HEMSBY,hemsby,norfolk,Met Office,52.686,1.687,13,1978,2001
00434,MILDENHALL,mildenhall,suffolk,Met Office,52.372,0.471,5,1949,1968
00435,BROOMS BARN,brooms-barn,suffolk,Met Office,52.261,0.566,75,1972,2023
00436,CAVENDISH,cavendish,suffolk,Met Office,52.091,0.628,55,1977,2023
00437,MARTLESHAM HEATH,martlesham-heath,suffolk,Met Office,52.06,1.284,25,1984,1987
00438,HONINGTON,honington,suffolk,Met Office,52.34,0.77,51,1970,2003
00439,EAST BERGHOLT,east-bergholt,suffolk,Met Office,51.96,1.023,7,1972,2020
00440,WATTISHAM,wattisham,suffolk,Met Office,52.124,0.957,89,1961,2023
00441,HAUGHLEY,haughley,suffolk,Met Office,52.236,0.973,62,1974,1982
00442,CHARSFIELD,charsfield,suffolk,Met Office,52.163,1.28,49,1992,2023
00443,FELIXSTOWE,felixstowe,suffolk,Met Office,51.947,1.325,3,1957,1961
00444,LEVINGTON,levington,suffolk,Met Office,52.012,1.264,22,1977,1996
00445,WESTLETON,westleton,suffolk,Met Office,52.247,1.621,10,1988,2015
00446,BECCLES,beccles,suffolk,Met Office,52.434,1.619,22,1990,1995
00448,ALDEBURGH,aldeburgh,suffolk,Met Office,52.147,1.603,7,1968,1978
00449,LOWESTOFT,lowestoft,suffolk,Met Office,52.49,1.744,25,1889,2003
00450,"BOXWORTH, HOME PADDOCK",boxworth-home-paddock,cambridgeshire,Met Office,52.257,-0.028,48,1972,1976
00451,"BOXWORTH, SAMSON FIELD",boxworth-samson-field,cambridgeshire,Met Office,52.251,-0.033,53,1977,2002
00452,MEPAL,mepal,cambridgeshire,Met Office,52.422,0.1,-2,1972,2005
00453,MARCH,march,cambridgeshire,Met Office,52.55,0.093,2,1972,2003
00454,"CAMBRIDGE, BOTANIC GARDEN",cambridge-botanic-garden,cambridgeshire,Met Office,52.194,0.129,13,1911,2023
00455,"CAMBRIDGE, NIAB",cambridge-niab,cambridgeshire,Met Office,52.245,0.1,26,1972,2023
00456,MONKS WOOD,monks-wood,cambridgeshire,Met Office,52.402,-0.237,41,1972,2023
00457,WYTON,wyton,cambridgeshire,Met Office,52.354,-0.116,40,1957,1995
00458,WOBURN,woburn,bedfordshire,Met Office,52.014,-0.596,89,1898,2023
00461,BEDFORD,bedford,bedfordshire,Met Office,52.227,-0.465,85,1980,2023
00464,SILSOE,silsoe,bedfordshire,Met Office,52.01,-0.41,59,1972,1999
00465,CARDINGTON,cardington,bedfordshire,Met Office,52.105,-0.422,27,1968,2023
00466,LUTON,luton,bedfordshire,Met Office,51.882,-0.377,158,1972,1989
00468,BOVINGDON,bovingdon,hertfordshire,Met Office,51.724,-0.544,157,1957,1967
00469,ALDENHAM SCHOOL NO 2,aldenham-school-no-2,hertfordshire,Met Office,51.662,-0.328,91,1972,2007
00470,"GARSTON, BUILDING RESEARCH ",garston-building-research,hertfordshire,Met Office,51.702,-0.376,78,1972,1982
00471,ROTHAMSTED,rothamsted,hertfordshire,Met Office,51.807,-0.36,128,1916,2023
00472,"ST ALBANS, OAKLANDS",st-albans-oaklands,hertfordshire,Met Office,51.756,-0.288,80,1972,1984
00474,LETCHWORTH,letchworth,hertfordshire,Met Office,51.997,-0.242,59,1972,1979
00476,STANSTEAD ABBOTS,stanstead-abbots,hertfordshire,Met Office,51.773,0.012,30,1972,1993
00477,HODDESDON,hoddesdon,hertfordshire,Met Office,51.777,-0.017,43,1972,1988
00479,BRENT PELHAM,brent-pelham,hertfordshire,Met Office,51.954,0.087,113,1988,1991
00481,HIGH BEACH,high-beach,essex,Met Office,51.664,0.041,110,1978,2023
00482,LITTLE PARNDON,little-parndon,hertfordshire,Met Office,51.777,0.095,54,1972,1978
00483,HARLOW,harlow,essex,Met Office,51.77,0.13,79,1972,1984
00484,STANSTED,stansted,essex,Met Office,51.881,0.223,101,1959,1997
00485,AUDLEY END,audley-end,essex,Met Office,52.023,0.221,52,1977,1984
00486,STANFORD-LE-HOPE,stanford-le-hope,essex,Met Office,51.506,0.427,6,1974,1982
00487,WRITTLE,writtle,essex,Met Office,51.734,0.429,32,1972,2023
00488,WIXOE,wixoe,essex,Met Office,52.059,0.492,50,1978,1989
00490,RETTENDON,rettendon,essex,Met Office,51.641,0.585,19,1987,2008
00491,HALSTEAD,halstead,essex,Met Office,51.947,0.645,70,1975,1993
00493,MALDON,maldon,essex,Met Office,51.726,0.696,4,1972,1976
00494,EARLS COLNE,earls-colne,essex,Met Office,51.927,0.701,51,1972,1975
00495,"RAYLEIGH, RAWRETH LANE",rayleigh-rawreth-lane,essex,Met Office,51.603,0.604,28,1980,1986
00496,"SOUTHEND, SOUTHCHURCH PARK",southend-southchurch-park,essex,Met Office,51.532,0.738,4,1972,2005
00497,SHOEBURYNESS,shoeburyness,essex,Met Office,51.537,0.807,2,1957,1980
00498,"SHOEBURYNESS, LANDWICK",shoeburyness-landwick,essex,Met Office,51.555,0.827,2,1984,2023
00500,"COLCHESTER, SEVERALLS LANE",colchester-severalls-lane,essex,Met Office,51.917,0.926,46,1997,1997
00501,THAMES TOWER,thames-tower,essex,Met Office,51.774,1.111,8,1994,1999
00502,CLACTON-ON-SEA,clacton-on-sea,essex,Met Office,51.785,1.148,16,1972,1995
00504,WALTON-ON-THE-NAZE,walton-on-the-naze,essex,Met Office,51.855,1.28,5,1968,2015
00505,DOVERCOURT NO 2,dovercourt-no-2,essex,Met Office,51.922,1.26,3,1972,1974
00506,HOLME MOSS,holme-moss,west-yorkshire,Met Office,53.533,-1.857,520,1983,1995
00507,SLAIDBURN,slaidburn,lancashire,Met Office,53.988,-2.435,192,1972,1996
00509,MALHAM TARN,malham-tarn,north-yorkshire,Met Office,54.1,-2.164,381,1972,2022
00510,RISHWORTH,rishworth,west-yorkshire,Met Office,53.663,-1.952,170,1990,1992
00511,TODMORDEN,todmorden,west-yorkshire,Met Office,53.721,-2.103,160,1973,1979
00513,"BINGLEY, NO 2",bingley-no-2,west-yorkshire,Met Office,53.811,-1.867,262,1973,2023
00514,HUDDERSFIELD,huddersfield,west-yorkshire,Met Office,53.645,-1.755,99,1972,1977
00515,"HUDDERSFIELD, OAKES",huddersfield-oakes,west-yorkshire,Met Office,53.656,-1.83,232,1957,1986
00516,BRADFORD,bradford,west-yorkshire,Met Office,53.814,-1.774,134,1972,2023
00517,ILKLEY NO 2,ilkley-no-2,west-yorkshire,Met Office,53.927,-1.811,84,1972,1993
00520,"SHEFFIELD, DORE",sheffield-dore,south-yorkshire,Met Office,53.331,-1.537,206,1976,1985
00521,EMLEY MOOR,emley-moor,west-yorkshire,Met Office,53.613,-1.665,259,1983,2010
00523,LEEDS WEATHER CENTRE,leeds-weather-centre,west-yorkshire,Met Office,53.801,-1.561,64,1985,2003
00524,HARROGATE,harrogate,north-yorkshire,Met Office,54.015,-1.539,66,1972,2003
00525,SHEFFIELD,sheffield,south-yorkshire,Met Office,53.381,-1.491,131,1882,2023
00527,HIGH BRADFIELD,high-bradfield,south-yorkshire,Met Office,53.433,-1.584,395,2009,2018
00529,RYHILL,ryhill,west-yorkshire,Met Office,53.628,-1.394,78,1994,2023
00532,PONTEFRACT,pontefract,west-yorkshire,Met Office,53.684,-1.316,78,1972,1980
00533,CHURCH FENTON,church-fenton,north-yorkshire,Met Office,53.836,-1.199,8,1983,2013
00534,BRAMHAM,bramham,west-yorkshire,Met Office,53.869,-1.319,54,1972,2023
00535,CAWOOD,cawood,north-yorkshire,Met Office,53.828,-1.148,6,1972,2023
00536,ASKHAM BRYAN,askham-bryan,north-yorkshire,Met Office,53.923,-1.163,32,1972,2005
00538,SKIPTON NO 2,skipton-no-2,north-yorkshire,Met Office,53.967,-2.03,153,1992,2008
00539,BUXTON,buxton,derbyshire,Met Office,53.258,-1.914,307,1875,2023
00541,ASHBOURNE,ashbourne,derbyshire,Met Office,53.009,-1.724,175,1989,1991
00542,COTON-IN-THE-ELMS,coton-in-the-elms,derbyshire,Met Office,52.737,-1.641,85,1991,2023
00543,"DERBY, MARKEATON PARK",derby-markeaton-park,derbyshire,Met Office,52.936,-1.506,58,1984,1990
00544,CHATSWORTH GARDENS,chatsworth-gardens,derbyshire,Met Office,53.227,-1.61,133,1972,1974
00545,BARBROOK,barbrook,derbyshire,Met Office,53.288,-1.579,323,1978,1979
00546,REPTON SCHOOL,repton-school,derbyshire,Met Office,52.84,-1.553,55,1972,1972
00547,MACKWORTH,mackworth,derbyshire,Met Office,52.922,-1.527,89,1972,1974
00548,BELPER,belper,derbyshire,Met Office,53.017,-1.486,62,1972,1973
00549,ASHOVER NO 2,ashover-no-2,derbyshire,Met Office,53.162,-1.48,178,1972,2015
00550,DERBY,derby,derbyshire,Met Office,52.927,-1.467,48,1972,1978
00551,MORLEY,morley,derbyshire,Met Office,52.957,-1.429,105,1972,2006
00552,WINGERWORTH NO 2,wingerworth-no-2,derbyshire,Met Office,53.194,-1.435,115,1972,1991
00554,SUTTON BONINGTON,sutton-bonington,nottinghamshire,Met Office,52.836,-1.251,43,1924,2023
00555,NEWTHORPE,newthorpe,nottinghamshire,Met Office,53.0,-1.292,58,1972,1983
00556,"NOTTINGHAM, WATNALL",nottingham-watnall,nottinghamshire,Met Office,53.006,-1.251,117,1957,2023
00558,MANSFIELD NO 2,mansfield-no-2,nottinghamshire,Met Office,53.151,-1.19,114,1972,1987
00559,NOTTINGHAM,nottingham,nottinghamshire,Met Office,52.95,-1.155,59,1972,1982
00560,KEYWORTH,keyworth,nottinghamshire,Met Office,52.878,-1.079,69,1988,2001
00561,WARSOP,warsop,nottinghamshire,Met Office,53.223,-1.116,46,1972,2006
00562,FINNINGLEY,finningley,south-yorkshire,Met Office,53.483,-1.008,10,1972,1995
00564,SOUTHWELL,southwell,nottinghamshire,Met Office,53.064,-0.963,70,1989,1993
00565,WEST RETFORD,west-retford,nottinghamshire,Met Office,53.338,-0.956,14,1994,1998
00566,WISETON,wiseton,nottinghamshire,Met Office,53.396,-0.932,6,1968,1995
00567,CLARBOROUGH,clarborough,nottinghamshire,Met Office,53.341,-0.901,21,1987,1993
00569,NEWTOWN LINFORD,newtown-linford,leicestershire,Met Office,52.681,-1.217,119,1972,2002
00571,STOUGHTON,stoughton,leicestershire,Met Office,52.613,-1.068,100,1990,1996
00572,LEICESTER MERCURY,leicester-mercury,leicestershire,Met Office,52.633,-1.125,61,1982,1983
00574,BROOKSBY HALL NO 2,brooksby-hall-no-2,leicestershire,Met Office,52.732,-0.996,70,1979,1996
00575,CALDECOTT P STA,caldecott-p-sta,leicestershire,Met Office,52.53,-0.727,53,1972,1994
00576,COTTESMORE,cottesmore,leicestershire,Met Office,52.727,-0.656,136,1974,2011
00577,BUGBROOKE MILL,bugbrooke-mill,northamptonshire,Met Office,52.221,-1.005,76,1972,1978
00578,"NORTHAMPTON, MOULTON PARK",northampton-moulton-park,northamptonshire,Met Office,52.274,-0.881,127,1976,2018
00580,RAUNDS,raunds,northamptonshire,Met Office,52.338,-0.547,59,1972,1992
00581,MARHOLM,marholm,cambridgeshire,Met Office,52.604,-0.311,21,1972,2003
00583,WITTERING,wittering,cambridgeshire,Met Office,52.612,-0.468,74,1957,2023
00585,"BIRMINGHAM, KING EDWARDS SCHOOL",birmingham-king-edwards-school,west-midlands,Met Office,52.449,-1.926,137,1972,1986
00586,"WINTERBOURNE, UNIVERSITY OF BIRMINGHAM",winterbourne-university-of-birmingham,west-midlands,Met Office,52.454,-1.924,130,1988,2012
00589,LUDDINGTON,luddington,warwickshire,Met Office,52.173,-1.757,56,1972,1989
00590,STRATFORD-UPON-AVON,stratford-upon-avon,warwickshire,Met Office,52.192,-1.762,49,1972,2001
00592,SHIPSTON-ON-STOUR,shipston-on-stour,warwickshire,Met Office,52.064,-1.691,111,1972,1982
00593,ELMDON,elmdon,west-midlands,Met Office,52.453,-1.742,96,1949,1999
00595,CHURCH LAWFORD,church-lawford,warwickshire,Met Office,52.359,-1.331,107,1983,2023
00596,WELLESBOURNE,wellesbourne,warwickshire,Met Office,52.206,-1.605,47,1972,2023
00597,"COVENTRY, TORRINGTON AVENUE",coventry-torrington-avenue,west-midlands,Met Office,52.399,-1.575,107,1966,1974
00598,"COVENTRY, BABLAKE",coventry-bablake,west-midlands,Met Office,52.414,-1.521,89,1984,1998
00599,MORETON MORRELL,moreton-morrell,warwickshire,Met Office,52.195,-1.554,85,1972,1988
00601,COVENTRY,coventry,warwickshire,Met Office,52.394,-1.519,103,1951,1966
00602,BROADWELL,broadwell,warwickshire,Met Office,52.289,-1.331,76,1975,1979
00603,LONG LAWFORD,long-lawford,warwickshire,Met Office,52.379,-1.307,87,1974,1977
00604,RUGBY,rugby,warwickshire,Met Office,52.37,-1.257,117,1972,2000
00605,BRIZE NORTON,brize-norton,oxfordshire,Met Office,51.758,-1.578,82,1968,2023
00606,OXFORD,oxford,oxfordshire,Met Office,51.761,-1.264,63,1972,2023
00607,SOUTH NEWINGTON,south-newington,oxfordshire,Met Office,51.998,-1.406,105,1994,2023
00608,"BANBURY, GRIMSBURY P STA",banbury-grimsbury-p-sta,oxfordshire,Met Office,52.073,-1.334,87,1989,1991
00609,SHIRBURN MODEL FARM,shirburn-model-farm,oxfordshire,Met Office,51.669,-0.996,108,1972,2023
00611,MAIDENSGROVE,maidensgrove,oxfordshire,Met Office,51.589,-0.958,182,1978,1982
00613,BENSON,benson,oxfordshire,Met Office,51.62,-1.099,57,1974,2023
00615,"MEDMENHAM, WATER RESEARCH",medmenham-water-research,buckinghamshire,Met Office,51.548,-0.84,30,1972,1981
00616,GRENDON UNDERWOOD,grendon-underwood,buckinghamshire,Met Office,51.889,-1.016,67,1972,2000
00618,AYLESBURY,aylesbury,buckinghamshire,Met Office,51.796,-0.782,96,1972,1985
00620,CHENIES NO 2,chenies-no-2,buckinghamshire,Met Office,51.69,-0.534,139,1993,1998
00622,KEELE,keele,staffordshire,Met Office,52.999,-2.27,179,1972,2023
00623,OAKEN,oaken,staffordshire,Met Office,52.625,-2.213,125,1972,1982
00625,STONE NO 2,stone-no-2,staffordshire,Met Office,52.886,-2.183,107,1972,1990
00626,PENKRIDGE,penkridge,staffordshire,Met Office,52.702,-2.12,101,1972,2004
00627,CELLARHEAD,cellarhead,staffordshire,Met Office,53.04,-2.085,228,1983,1997
00628,IPSTONES EDGE,ipstones-edge,staffordshire,Met Office,53.056,-1.951,340,1994,2023
00629,WALSALL,walsall,west-midlands,Met Office,52.607,-1.917,163,1972,1999
00631,DENSTONE,denstone,staffordshire,Met Office,52.957,-1.866,140,1994,2006
00632,OSWESTRY,oswestry,shropshire,Met Office,52.858,-3.072,174,1972,1982
00633,NEWCASTLE ON CLUN,newcastle-on-clun,shropshire,Met Office,52.433,-3.108,215,1989,1997
00634,PENNERLEY,pennerley,shropshire,Met Office,52.59,-2.95,357,1988,2023
00635,OSWESTRY SCHOOL,oswestry-school,shropshire,Met Office,52.856,-3.063,139,1985,2000
00636,EDGE,edge,shropshire,Met Office,52.674,-2.891,126,1988,2022
00638,PRESTON MONTFORD,preston-montford,shropshire,Met Office,52.725,-2.842,71,1976,2023
00639,"SHREWSBURY, SHELTON",shrewsbury-shelton,shropshire,Met Office,52.715,-2.794,87,1984,1985
00640,"SHREWSBURY, MONKMOOR S WKS",shrewsbury-monkmoor-s-wks,shropshire,Met Office,52.718,-2.718,55,1972,1983
00641,LUDLOW COLLEGE NO 2,ludlow-college-no-2,shropshire,Met Office,52.367,-2.723,107,1988,2002
00642,LUDLOW W WKS,ludlow-w-wks,shropshire,Met Office,52.355,-2.712,72,1979,1980
00643,SHAWBURY,shawbury,shropshire,Met Office,52.795,-2.665,72,1957,2023
00645,CLEE HILL,clee-hill,shropshire,Met Office,52.398,-2.591,504,1968,1970
00646,NETHERCOTT,nethercott,shropshire,Met Office,52.405,-2.476,150,1994,1994
00647,DETTON HALL,detton-hall,shropshire,Met Office,52.413,-2.491,153,1994,2003
00648,COALBROOKDALE,coalbrookdale,shropshire,Met Office,52.64,-2.494,73,1992,2002
00649,WELLINGTON NO 2,wellington-no-2,shropshire,Met Office,52.702,-2.485,96,1972,1972
00650,BRIDGNORTH,bridgnorth,shropshire,Met Office,52.536,-2.43,75,1972,1972
00651,NEWPORT (SALOP),newport-salop,shropshire,Met Office,52.778,-2.428,66,1928,2023
00652,HAMPTON LOADE,hampton-loade,shropshire,Met Office,52.48,-2.368,65,1972,1982
00653,MALVERN,malvern,hereford-and-worcester,Met Office,52.113,-2.308,62,1900,2008
00654,"WORCESTER, BARBOURNE",worcester-barbourne,hereford-and-worcester,Met Office,52.211,-2.23,25,1988,2003
00657,PERSHORE,pershore,hereford-and-worcester,Met Office,52.148,-2.041,35,1957,2023
00658,PERSHORE COLLEGE,pershore-college,hereford-and-worcester,Met Office,52.1,-2.06,37,1972,2023
00660,ASTWOOD BANK,astwood-bank,hereford-and-worcester,Met Office,52.248,-1.935,137,1976,2023
00661,IPSLEY S WKS,ipsley-s-wks,hereford-and-worcester,Met Office,52.288,-1.911,73,1972,1974
00663,HALESOWEN,halesowen,west-midlands,Met Office,52.438,-2.076,153,1956,2004
00664,MADLEY,madley,hereford-and-worcester,Met Office,52.031,-2.842,78,1986,2004
00665,HEREFORD,hereford,hereford-and-worcester,Met Office,52.045,-2.701,51,1972,1979
00666,LYONSHALL,lyonshall,hereford-and-worcester,Met Office,52.213,-2.975,164,1994,2014
00668,"BROMYARD, BATCHLEY FARM",bromyard-batchley-farm,hereford-and-worcester,Met Office,52.214,-2.587,250,1983,2015
00669,SHOBDON AIRFIELD,shobdon-airfield,hereford-and-worcester,Met Office,52.243,-2.886,99,1992,2023
00670,GREAT MALVERN,great-malvern,hereford-and-worcester,Met Office,52.121,-2.306,44,1983,2008
00671,ROSS-ON-WYE,ross-on-wye,hereford-and-worcester,Met Office,51.911,-2.586,67,1914,2023
00672,"WORCESTER, CORNMEADOW",worcester-cornmeadow,hereford-and-worcester,Met Office,52.224,-2.225,30,1983,1986
00673,PRESTON WYNNE,preston-wynne,hereford-and-worcester,Met Office,52.125,-2.638,84,1972,2008
00674,AVONMOUTH,avonmouth,avon,Met Office,51.506,-2.717,9,2009,2021
00675,BRISTOL WEATHER CENTRE,bristol-weather-centre,avon,Met Office,51.453,-2.6,42,1981,2001
00676,FILTON,filton,avon,Met Office,51.522,-2.577,59,1957,2018
00679,"SLIMBRIDGE, SIX ACRES",slimbridge-six-acres,gloucestershire,Met Office,51.705,-2.383,45,1994,1999
00680,SLIMBRIDGE,slimbridge,gloucestershire,Met Office,51.74,-2.404,5,1988,1998
00682,RANDWICK,randwick,gloucestershire,Met Office,51.762,-2.246,200,1989,2003
00683,HEMPSTED,hempsted,gloucestershire,Met Office,51.84,-2.276,12,1972,1975
00684,GLOUCESTER,gloucester,gloucestershire,Met Office,51.858,-2.218,23,1972,1975
00685,BERRY HILL,berry-hill,gloucestershire,Met Office,51.808,-2.619,232,1983,1983
00686,INNSWORTH,innsworth,gloucestershire,Met Office,51.891,-2.196,21,1968,1981
00687,CHELTENHAM,cheltenham,gloucestershire,Met Office,51.895,-2.08,65,1889,2001
00688,CIRENCESTER,cirencester,gloucestershire,Met Office,51.709,-1.996,133,1972,2023
00690,DIDBROOK FIELDS,didbrook-fields,gloucestershire,Met Office,51.986,-1.932,80,1981,1998
00691,WESTONBIRT,westonbirt,gloucestershire,Met Office,51.607,-2.221,135,1983,2023
00692,LITTLE RISSINGTON,little-rissington,gloucestershire,Met Office,51.861,-1.693,210,1957,2023
00694,KENSINGTON PALACE,kensington-palace,greater-london,Met Office,51.506,-0.187,25,1972,1978
00695,HAMPSTEAD,hampstead,greater-london,Met Office,51.561,-0.18,137,1910,2016
00697,"LONDON, ST JAMES'S PARK",london-st-jamess-park,greater-london,Met Office,51.505,-0.131,5,1912,2023
00707,GREENWICH,greenwich,greater-london,Met Office,51.48,-0.004,7,1972,1997
00708,HEATHROW,heathrow,greater-london,Met Office,51.479,-0.451,25,1949,2023
00709,NORTHOLT,northolt,greater-london,Met Office,51.549,-0.417,33,1974,2023
00710,NORTHWOOD,northwood,greater-london,Met Office,51.613,-0.421,85,1987,2015
00711,HAMPTON W WKS,hampton-w-wks,greater-london,Met Office,51.412,-0.378,12,1972,2019
00712,WEALDSTONE,wealdstone,greater-london,Met Office,51.595,-0.35,53,1980,1982
00713,HARROW WEALD,harrow-weald,greater-london,Met Office,51.615,-0.336,98,1974,1982
00714,SOUTHGATE,southgate,greater-london,Met Office,51.641,-0.124,67,1972,1988
00715,"WALTHAM CROSS, CAPEL MANOR",waltham-cross-capel-manor,greater-london,Met Office,51.68,-0.056,32,1989,1992
00716,"ENFIELD, MIDDLESEX POLYTECHNIC",enfield-middlesex-polytechnic,greater-london,Met Office,51.646,-0.047,17,1973,1990
00718,MERRIST WOOD,merrist-wood,surrey,Met Office,51.274,-0.618,51,1973,1997
00719,WISLEY,wisley,surrey,Met Office,51.311,-0.476,38,1904,2023
00720,MICKLEHAM,mickleham,surrey,Met Office,51.261,-0.321,55,1950,2023
00721,KEW,kew,greater-london,Met Office,51.468,-0.316,5,1957,1980
00723,KEW GARDENS,kew-gardens,greater-london,Met Office,51.482,-0.294,6,1980,2023
00724,CRAWLEY,crawley,west-sussex,Met Office,51.083,-0.211,144,1983,1992
00725,GATWICK,gatwick,west-sussex,Met Office,51.152,-0.193,59,1958,1998
00726,KENLEY AIRFIELD,kenley-airfield,greater-london,Met Office,51.304,-0.092,170,1989,2023
00728,WADDON,waddon,greater-london,Met Office,51.359,-0.114,59,1972,1985
00729,ADDINGTON,addington,greater-london,Met Office,51.362,-0.059,144,1972,1974
00730,EDENBRIDGE,edenbridge,kent,Met Office,51.204,0.135,45,1973,2023
00731,BROMLEY,bromley,greater-london,Met Office,51.404,0.013,65,1972,1982
00732,ANVIL GREEN,anvil-green,kent,Met Office,51.206,1.015,140,1984,1991
00733,EYNSFORD,eynsford,kent,Met Office,51.37,0.206,43,1990,2008
00738,HADLOW COLLEGE,hadlow-college,kent,Met Office,51.223,0.33,27,1972,1994
00740,WEST MALLING,west-malling,kent,Met Office,51.272,0.403,93,1968,1969
00741,GRAVESEND NO 2,gravesend-no-2,kent,Met Office,51.445,0.374,20,1993,1995
00742,GOUDHURST,goudhurst,kent,Met Office,51.077,0.46,85,1972,2023
00743,LANGDON BAY,langdon-bay,kent,Met Office,51.134,1.343,117,1988,2023
00744,EAST MALLING,east-malling,kent,Met Office,51.288,0.448,33,1925,2023
00745,CHATHAM SOUTH,chatham-south,kent,Met Office,51.365,0.523,91,1976,1979
00746,ULCOMBE,ulcombe,kent,Met Office,51.197,0.636,47,1972,1996
00747,CHARING,charing,kent,Met Office,51.197,0.782,91,1980,2002
00748,GILLINGHAM NO 2,gillingham-no-2,kent,Met Office,51.394,0.564,3,1972,1981
00750,PECKHAM,peckham,kent,Met Office,51.185,0.63,29,1972,1972
00752,SHEERNESS,sheerness,kent,Met Office,51.447,0.744,25,1993,2008
00756,THROWLEY,throwley,kent,Met Office,51.231,0.839,150,1972,1975
00757,FAVERSHAM,faversham,kent,Met Office,51.297,0.878,46,1972,2023
00758,DUNGENESS,dungeness,kent,Met Office,50.913,0.972,6,1957,1979
00760,WYE,wye,kent,Met Office,51.185,0.945,56,1972,2006
00761,WHITSTABLE,whitstable,kent,Met Office,51.358,1.032,3,1972,1974
00762,"FOLKESTONE, FAIRWAY AVENUE",folkestone-fairway-avenue,kent,Met Office,51.089,1.16,31,1972,2003
00763,FOLKESTONE,folkestone,kent,Met Office,51.078,1.178,39,1908,1960
00765,HERNE BAY NO 2,herne-bay-no-2,kent,Met Office,51.358,1.135,40,1985,2006
00766,ELMSTONE,elmstone,kent,Met Office,51.298,1.235,9,1972,1972
00767,ELMSTONE NO 2,elmstone-no-2,kent,Met Office,51.3,1.245,5,1972,1994
00768,"HERNE BAY, MAYSTREET S WKS",herne-bay-maystreet-s-wks,kent,Met Office,51.363,1.172,31,1972,1979
00770,DOVER,dover,kent,Met Office,51.121,1.314,6,1918,1976
00772,DOVER (RMS),dover-rms,kent,Met Office,51.147,1.326,123,1972,1979
00773,ST MARGARETS,st-margarets,kent,Met Office,51.157,1.392,83,1972,1975
00775,MANSTON,manston,kent,Met Office,51.347,1.335,49,1961,2023
00777,"MARGATE, NORTH DOWN",margate-north-down,kent,Met Office,51.381,1.42,42,1988,2008
00778,MARGATE,margate,kent,Met Office,51.392,1.402,16,1889,1988
00779,THORNEY ISLAND,thorney-island,west-sussex,Met Office,50.815,-0.922,4,1958,2023
00781,ROGATE,rogate,west-sussex,Met Office,51.007,-0.848,64,1972,1993
00782,BOGNOR REGIS,bognor-regis,west-sussex,Met Office,50.782,-0.677,7,1901,2023
00783,TANGMERE,tangmere,west-sussex,Met Office,50.85,-0.707,16,1957,1958
00784,DUNCTON,duncton,west-sussex,Met Office,50.949,-0.621,23,1993,1994
00785,FERNHURST,fernhurst,west-sussex,Met Office,51.032,-0.706,57,1972,1981
00786,LITTLEHAMPTON,littlehampton,west-sussex,Met Office,50.807,-0.535,5,1972,1979
00787,RUSTINGTON,rustington,west-sussex,Met Office,50.821,-0.518,3,1972,1995
00788,WESTERGATE,westergate,west-sussex,Met Office,50.841,-0.665,8,1978,1985
00789,STORRINGTON,storrington,west-sussex,Met Office,50.928,-0.453,38,1992,1992
00790,NORTH HEATH,north-heath,west-sussex,Met Office,50.994,-0.478,21,1972,1990
00791,"BRIGHTON, WHITEHAWK",brighton-whitehawk,east-sussex,Met Office,50.832,-0.11,120,1983,1985
00793,WORTHING,worthing,west-sussex,Met Office,50.819,-0.355,2,1972,1993
00795,SHOREHAM AIRPORT,shoreham-airport,west-sussex,Met Office,50.836,-0.294,2,1988,2023
00796,TOTTINGTON BARN,tottington-barn,west-sussex,Met Office,50.88,-0.266,185,1991,1996
00797,BRIGHTON,brighton,east-sussex,Met Office,50.821,-0.137,10,1972,1981
00799,NEWHAVEN,newhaven,east-sussex,Met Office,50.782,0.057,5,1993,2000
00800,HURSTPIERPOINT NO 2,hurstpierpoint-no-2,west-sussex,Met Office,50.942,-0.164,32,1976,1980
00801,BRIGHTON NO 2,brighton-no-2,east-sussex,Met Office,50.825,-0.113,116,1987,1992
00802,LOWER WILLINGDON,lower-willingdon,east-sussex,Met Office,50.809,0.243,22,1988,1995
00803,PLUMPTON,plumpton,east-sussex,Met Office,50.906,-0.071,76,1972,2003
00804,WAKEHURST PLACE,wakehurst-place,west-sussex,Met Office,51.068,-0.091,127,1972,1972
00807,EAST HOATHLY,east-hoathly,east-sussex,Met Office,50.909,0.145,38,1968,1992
00808,EASTBOURNE,eastbourne,east-sussex,Met Office,50.759,0.283,15,1887,2023
00809,EASTBOURNE COASTGUARD,eastbourne-coastguard,east-sussex,Met Office,50.782,0.309,3,1968,1974
00810,HERSTMONCEUX,herstmonceux,east-sussex,Met Office,50.865,0.336,18,1976,1992
00811,"HERSTMONCEUX, WEST END",herstmonceux-west-end,east-sussex,Met Office,50.891,0.317,52,1992,2023
00812,BEXHILL,bexhill,east-sussex,Met Office,50.838,0.464,4,1923,2012
00813,FAIRLIGHT NO 2,fairlight-no-2,east-sussex,Met Office,50.871,0.644,145,1983,1990
00814,LIPHOOK,liphook,hampshire,Met Office,51.08,-0.815,98,1983,1988
00816,BREDE,brede,east-sussex,Met Office,50.939,0.593,82,1989,2003
00817,BODIAM,bodiam,east-sussex,Met Office,50.996,0.542,22,1972,1975
00818,HASTINGS,hastings,east-sussex,Met Office,50.856,0.57,45,1972,2023
00819,LAMBOURN,lambourn,berkshire,Met Office,51.533,-1.49,192,1973,1996
00820,LETCOMBE REGIS,letcombe-regis,oxfordshire,Met Office,51.574,-1.453,107,1972,1984
00822,ABINGDON,abingdon,oxfordshire,Met Office,51.689,-1.308,69,1957,1973
00825,WALLINGFORD,wallingford,oxfordshire,Met Office,51.603,-1.113,47,1972,2023
00827,"ARBORFIELD, NAT INST RES DAIRYING",arborfield-nat-inst-res-dairying,berkshire,Met Office,51.41,-0.913,49,1980,1992
00828,"SHINFIELD, NAT INST RES DAIRYING",shinfield-nat-inst-res-dairying,berkshire,Met Office,51.41,-0.953,62,1975,1980
00829,"SHINFIELD, DEPT AGRIC BOTANY",shinfield-dept-agric-botany,berkshire,Met Office,51.412,-0.946,61,1972,1975
00830,"READING UNIVERSITY, WHITEKNIGHTS",reading-university-whiteknights,berkshire,Met Office,51.441,-0.938,66,1972,2023
00834,FINCHAMPSTEAD,finchampstead,berkshire,Met Office,51.363,-0.862,65,1972,1973
00836,"HURLEY, RESEARCH INSTITUTE",hurley-research-institute,berkshire,Met Office,51.539,-0.815,43,1972,1992
00838,"BRACKNELL, BEAUFORT PARK",bracknell-beaufort-park,berkshire,Met Office,51.39,-0.786,74,1972,2003
00840,BOURNEMOUTH,bournemouth,dorset,Met Office,50.727,-1.885,40,1914,1978
00841,"BOURNEMOUTH, DORSET TECH COLLEGE",bournemouth-dorset-tech-college,dorset,Met Office,50.742,-1.894,50,1978,1980
00842,HURN,hurn,dorset,Met Office,50.779,-1.836,10,1957,2023
00843,"BOURNEMOUTH, KINGS PARK",bournemouth-kings-park,dorset,Met Office,50.734,-1.824,27,1982,2023
00844,IBSLEY,ibsley,hampshire,Met Office,50.884,-1.772,27,1992,2018
00845,CHRISTCHURCH,christchurch,dorset,Met Office,50.744,-1.783,4,1972,2004
00846,EVERTON,everton,hampshire,Met Office,50.742,-1.575,16,1972,2003
00847,MIDDLE WALLOP,middle-wallop,hampshire,Met Office,51.15,-1.57,90,1983,2023
00848,"SOUTHAMPTON, MAYFLOWER PARK",southampton-mayflower-park,hampshire,Met Office,50.899,-1.41,3,1969,2000
00850,SOUTHAMPTON,southampton,hampshire,Met Office,50.901,-1.404,19,1974,2001
00851,SPARSHOLT,sparsholt,hampshire,Met Office,51.085,-1.392,113,1976,1992
00852,LECKFORD,leckford,hampshire,Met Office,51.124,-1.441,117,1972,2012
00855,OTTERBOURNE W WKS,otterbourne-w-wks,hampshire,Met Office,51.009,-1.335,34,1979,2023
00856,WINCHESTER,winchester,hampshire,Met Office,51.062,-1.324,82,1972,1975
00858,SOLENT,solent,hampshire,Met Office,50.808,-1.211,9,1983,2015
00859,MARTYR WORTHY,martyr-worthy,hampshire,Met Office,51.103,-1.263,85,1972,2002
00860,"KINGSCLERE, STRATTONS FARM",kingsclere-strattons-farm,hampshire,Met Office,51.344,-1.265,102,1990,2002
00862,ODIHAM,odiham,hampshire,Met Office,51.239,-0.945,118,1983,2023
00863,HAYLING ISLAND,hayling-island,hampshire,Met Office,50.785,-0.986,4,1972,2023
00864,"BUTSER, HILLHAMPTON",butser-hillhampton,hampshire,Met Office,50.963,-0.982,122,1976,1990
00865,"BUTSER, WINDMILL HILL",butser-windmill-hill,hampshire,Met Office,50.944,-0.976,92,1990,2009
00866,LITTLE BUTSER,little-butser,hampshire,Met Office,50.983,-0.977,183,1976,1990
00867,LONG SUTTON,long-sutton,hampshire,Met Office,51.213,-0.93,145,1972,2001
00868,ALICE HOLT LODGE,alice-holt-lodge,hampshire,Met Office,51.178,-0.85,115,1972,2023
00869,SOUTH FARNBOROUGH,south-farnborough,hampshire,Met Office,51.28,-0.773,65,1921,2022
00873,WIGHT: TOTLAND,wight-totland,isle-of-wight,Met Office,50.684,-1.544,20,1989,1996
00874,WIGHT: WELLOW,wight-wellow,isle-of-wight,Met Office,50.69,-1.448,25,1989,1992
00876,WIGHT: ST CATHERINES POINT,wight-st-catherines-point,isle-of-wight,Met Office,50.576,-1.297,20,1924,2023
00877,WIGHT: VENTNOR PARK,wight-ventnor-park,isle-of-wight,Met Office,50.593,-1.213,60,1972,2023
00878,WIGHT: SHANKLIN,wight-shanklin,isle-of-wight,Met Office,50.624,-1.181,55,1972,2023
00879,WIGHT: SANDOWN,wight-sandown,isle-of-wight,Met Office,50.658,-1.147,4,1972,1997
00880,WIGHT: RYDE,wight-ryde,isle-of-wight,Met Office,50.732,-1.157,4,1972,1998
00881,TROWBRIDGE,trowbridge,wiltshire,Met Office,51.324,-2.224,37,1976,1985
00882,NETHERAVON,netheravon,wiltshire,Met Office,51.244,-1.766,129,1983,1995
00883,LACOCK,lacock,wiltshire,Met Office,51.431,-2.115,49,1972,2023
00884,TEFFONT MAGNA,teffont-magna,wiltshire,Met Office,51.093,-2.026,117,1993,1998
00886,LYNEHAM,lyneham,wiltshire,Met Office,51.503,-1.992,145,1968,2023
00888,LARKHILL,larkhill,wiltshire,Met Office,51.202,-1.806,132,1921,2023
00889,BOSCOMBE DOWN,boscombe-down,wiltshire,Met Office,51.162,-1.755,126,1968,2023
00890,UPAVON,upavon,wiltshire,Met Office,51.292,-1.776,179,1957,1988
00891,MARLBOROUGH,marlborough,wiltshire,Met Office,51.416,-1.735,129,1875,1996
00892,PORTON,porton,wiltshire,Met Office,51.128,-1.701,111,1921,1979
00894,UPPER KILLEYAN,upper-killeyan,argyll-in-strathclyde-region,Met Office,55.595,-6.317,90,1979,1987
00896,ORSAY,orsay,argyll-in-strathclyde-region,Met Office,55.674,-6.511,23,1985,1998
00897,RHUVAAL,rhuvaal,argyll-in-strathclyde-region,Met Office,55.936,-6.125,20,1957,1981
00898,"COLONSAY, HOTEL",colonsay-hotel,argyll-in-strathclyde-region,Met Office,56.069,-6.195,15,1990,1998
00899,COLONSAY,colonsay,argyll-in-strathclyde-region,Met Office,56.084,-6.208,35,1972,1989
00900,AROS,aros,argyll-in-strathclyde-region,Met Office,56.536,-5.981,37,1972,1996
00901,ARDNAMURCHAN,ardnamurchan,argyll-in-highland-region,Met Office,56.726,-6.224,6,1982,1988
00902,KILCHOAN NO 2,kilchoan-no-2,argyll-in-highland-region,Met Office,56.696,-6.123,10,1989,1989
00903,KILMORY,kilmory,argyll-in-highland-region,Met Office,56.758,-6.048,45,1989,2004
00904,CRAIGHOUSE,craighouse,argyll-in-strathclyde-region,Met Office,55.834,-5.951,4,1972,1986
00907,"MORVERN, CLAGGAN",morvern-claggan,argyll-in-highland-region,Met Office,56.584,-5.749,28,1994,2001
00908,MACHRIHANISH,machrihanish,argyll-in-strathclyde-region,Met Office,55.441,-5.697,10,1968,2023
00909,CAMPBELTOWN NO 2,campbeltown-no-2,argyll-in-strathclyde-region,Met Office,55.428,-5.611,12,1972,1972
00911,ACHAGLACHGACH,achaglachgach,argyll-in-strathclyde-region,Met Office,55.822,-5.493,12,1972,1978
00912,KNAPDALE FOREST,knapdale-forest,argyll-in-strathclyde-region,Met Office,56.06,-5.553,40,1972,1976
00913,STRONACHULLIN NO 2,stronachullin-no-2,argyll-in-strathclyde-region,Met Office,55.96,-5.444,2,1976,1989
00914,OBAN COASTGUARD,oban-coastguard,argyll-in-strathclyde-region,Met Office,56.412,-5.472,17,1985,2000
00915,LOCHGILPHEAD,lochgilphead,argyll-in-strathclyde-region,Met Office,56.034,-5.428,6,1985,2021
00917,KNAPDALE FOREST NO 2,knapdale-forest-no-2,argyll-in-strathclyde-region,Met Office,56.059,-5.482,12,1977,1985
00918,DUNSTAFFNAGE,dunstaffnage,argyll-in-strathclyde-region,Met Office,56.45,-5.44,3,1972,2023
00919,INVERINAN MOR,inverinan-mor,argyll-in-strathclyde-region,Met Office,56.306,-5.244,70,1989,2005
00921,GLENBRANTER NO 2,glenbranter-no-2,argyll-in-strathclyde-region,Met Office,56.135,-5.038,24,1972,1976
00922,KILCHRENAN,kilchrenan,argyll-in-strathclyde-region,Met Office,56.357,-5.177,80,1979,1985
00923,INVERINAN,inverinan,argyll-in-strathclyde-region,Met Office,56.308,-5.238,46,1985,1989
00924,GLEN ETIVE NO 2,glen-etive-no-2,argyll-in-strathclyde-region,Met Office,56.583,-5.025,24,1972,1972
00925,"BENMORE, FORESTRY SCHOOL",benmore-forestry-school,argyll-in-strathclyde-region,Met Office,56.024,-4.989,14,1932,1958
00926,"BENMORE, YOUNGER BOTANIC GARDEN",benmore-younger-botanic-garden,argyll-in-strathclyde-region,Met Office,56.028,-4.985,12,1972,2023
00927,GLENCEITLEIN,glenceitlein,argyll-in-strathclyde-region,Met Office,56.585,-5.017,40,1973,1978
00928,ARDENTINNY,ardentinny,argyll-in-strathclyde-region,Met Office,56.046,-4.914,5,1979,1997
00929,BRIDGE OF ORCHY NO 2,bridge-of-orchy-no-2,argyll-in-strathclyde-region,Met Office,56.518,-4.768,150,1986,1986
00930,BLACK MOUNT,black-mount,argyll-in-strathclyde-region,Met Office,56.545,-4.796,175,1989,2006
00931,ARRAN: LOCHRANZA NO 3,arran-lochranza-no-3,buteshire,Met Office,55.706,-5.304,46,1988,2008
00934,PLADDA LIGHTHOUSE,pladda-lighthouse,argyll-in-strathclyde-region,Met Office,55.424,-5.118,12,1986,1990
00935,ARRAN: KILDONAN,arran-kildonan,buteshire,Met Office,55.442,-5.108,18,1972,1986
00937,ARRAN: BRODICK CASTLE,arran-brodick-castle,buteshire,Met Office,55.592,-5.154,15,1972,2023
00938,BUTE: DHU LOCH W WKS,bute-dhu-loch-w-wks,buteshire,Met Office,55.816,-5.08,83,1983,1986
00939,BUTE: ROTHESAY,bute-rothesay,buteshire,Met Office,55.839,-5.064,43,1972,2013
00940,GT CUMBRAE: MILLPORT,gt-cumbrae-millport,buteshire,Met Office,55.749,-4.908,5,1951,2023
00941,COULPORT,coulport,dunbartonshire,Met Office,56.059,-4.873,114,1974,1979
00942,FINNART,finnart,dunbartonshire,Met Office,56.116,-4.831,15,1972,1976
00944,HELENSBURGH NO 2,helensburgh-no-2,dunbartonshire,Met Office,56.016,-4.724,96,1980,2002
00945,BLAIRVADACH,blairvadach,dunbartonshire,Met Office,56.028,-4.794,4,1975,1982
00946,SLOY,sloy,dunbartonshire,Met Office,56.251,-4.712,12,1965,2006
00947,KEIL SCHOOL,keil-school,dunbartonshire,Met Office,55.942,-4.584,40,1991,1993
00949,"GARTOCHARN, PORTNELLAN FARM",gartocharn-portnellan-farm,dunbartonshire,Met Office,56.048,-4.567,40,1993,2023
00950,ARROCHYMORE,arrochymore,stirling-in-central-region,Met Office,56.093,-4.549,30,1972,1991
00951,KIRKINTILLOCH,kirkintilloch,dunbartonshire,Met Office,55.943,-4.139,60,1977,1984
00953,CUMBERNAULD,cumbernauld,dunbartonshire,Met Office,55.961,-3.969,94,1972,1978
00954,MUGDOCK PARK,mugdock-park,stirling-in-central-region,Met Office,55.973,-4.33,165,1990,2023
00955,EARLS HILL,earls-hill,stirling-in-central-region,Met Office,56.07,-4.05,335,1968,1973
00956,STIRLING S WKS,stirling-s-wks,stirling-in-central-region,Met Office,56.119,-3.919,7,1983,1999
00957,"STIRLING, BATTERFLATS",stirling-batterflats,stirling-in-central-region,Met Office,56.11,-3.954,38,1972,1982
00959,"PARKHEAD, STIRLING UNIVERSITY",parkhead-stirling-university,stirling-in-central-region,Met Office,56.149,-3.907,35,1972,2004
00960,"FALKIRK, S WKS",falkirk-s-wks,stirling-in-central-region,Met Office,56.018,-3.763,3,1972,2001
00962,GRANGEMOUTH,grangemouth,stirling-in-central-region,Met Office,56.018,-3.72,4,1972,1978
00963,GRANGEMOUTH REFINERY,grangemouth-refinery,stirling-in-central-region,Met Office,56.009,-3.686,2,1972,2023
00964,GREENOCK MRCC,greenock-mrcc,renfrewshire,Met Office,55.962,-4.794,5,1987,2007
00965,GREENOCK,greenock,renfrewshire,Met Office,55.943,-4.765,61,1972,1986
00967,UPLAWMOOR,uplawmoor,renfrewshire,Met Office,55.765,-4.501,128,1977,1996
00968,PAISLEY,paisley,renfrewshire,Met Office,55.845,-4.431,32,1914,2011
00969,BARRHEAD,barrhead,renfrewshire,Met Office,55.811,-4.378,30,1972,1977
00970,RENFREW,renfrew,renfrewshire,Met Office,55.867,-4.386,8,1949,1966
00971,ABBOTSINCH,abbotsinch,renfrewshire,Met Office,55.869,-4.431,5,1966,1999
00972,POLLOK COUNTRY PARK,pollok-country-park,renfrewshire,Met Office,55.825,-4.315,16,1991,2023
00973,DRUMCLOG,drumclog,lanarkshire,Met Office,55.627,-4.201,227,1983,2008
00974,CROSSMYLOOF,crossmyloof,lanarkshire,Met Office,55.836,-4.282,23,1972,1973
00975,GLASGOW WEATHER CENTRE,glasgow-weather-centre,lanarkshire,Met Office,55.86,-4.264,40,1974,1985
00977,"GLASGOW, SPRINGBURN",glasgow-springburn,lanarkshire,Met Office,55.89,-4.227,107,1972,1997
00978,EAST KILBRIDE NO 2,east-kilbride-no-2,lanarkshire,Met Office,55.755,-4.172,178,1972,2005
00980,"MOTHERWELL, STRATHCLYDE PARK",motherwell-strathclyde-park,lanarkshire,Met Office,55.786,-4.023,22,1979,2023
00981,COATBRIDGE,coatbridge,lanarkshire,Met Office,55.855,-4.056,66,1972,1986
00982,SALSBURGH,salsburgh,lanarkshire,Met Office,55.861,-3.875,277,1968,2023
00983,LEADHILLS,leadhills,lanarkshire,Met Office,55.416,-3.76,393,1953,2019
00984,LOWTHER HILL,lowther-hill,lanarkshire,Met Office,55.378,-3.753,754,1968,1968
00986,CRAWFORDJOHN,crawfordjohn,lanarkshire,Met Office,55.496,-3.776,274,1968,1983
00987,DRUMALBIN,drumalbin,lanarkshire,Met Office,55.627,-3.736,245,1984,2023
00989,LANARK,lanark,lanarkshire,Met Office,55.671,-3.79,152,1972,1982
00990,ABINGTON,abington,lanarkshire,Met Office,55.489,-3.692,247,1982,1994
00991,CARNWATH,carnwath,lanarkshire,Met Office,55.7,-3.634,208,1972,2006
00992,CAMPS RESR,camps-resr,lanarkshire,Met Office,55.487,-3.589,295,1972,1999
00994,GIRVAN,girvan,ayrshire,Met Office,55.243,-4.857,8,1972,2012
00996,HUNTERSTON NO 3,hunterston-no-3,ayrshire,Met Office,55.723,-4.893,8,1972,2022
00999,CULZEAN CASTLE,culzean-castle,ayrshire,Met Office,55.351,-4.791,42,1991,2017
01002,LARGS NO 2,largs-no-2,ayrshire,Met Office,55.802,-4.849,60,1977,1978
01003,BARR,barr,ayrshire,Met Office,55.211,-4.695,122,1972,1983
01004,"TROON, MARR COLLEGE",troon-marr-college,ayrshire,Met Office,55.546,-4.641,12,1973,1975
01005,AUCHINCRUIVE,auchincruive,ayrshire,Met Office,55.477,-4.565,48,1932,2023
01006,PRESTWICK NO 2,prestwick-no-2,ayrshire,Met Office,55.501,-4.584,16,1957,1998
01007,"PRESTWICK, GANNET",prestwick-gannet,ayrshire,Met Office,55.515,-4.585,27,1993,2023
01008,DALRY,dalry,ayrshire,Met Office,55.718,-4.719,33,1981,2005
01009,LOCH BRADAN W WKS,loch-bradan-w-wks,ayrshire,Met Office,55.263,-4.463,250,1993,2000
01011,KILMARNOCK NO 2,kilmarnock-no-2,ayrshire,Met Office,55.608,-4.519,34,1972,1981
01012,CUMNOCK,cumnock,ayrshire,Met Office,55.453,-4.274,99,1975,2004
01013,SAUGHALL,saughall,ayrshire,Met Office,55.601,-4.226,221,1994,2013
01015,"DUMFRIES, DRUNGANS",dumfries-drungans,kirkcudbrightshire,Met Office,55.054,-3.645,16,1983,2004
01016,TROQUEER S WKS,troqueer-s-wks,dumfriesshire,Met Office,55.058,-3.616,5,1972,1974
01017,DUMFRIES,dumfries,dumfriesshire,Met Office,55.056,-3.595,49,1972,1998
01018,AUCHEN CASTLE,auchen-castle,dumfriesshire,Met Office,55.329,-3.482,184,1972,1994
01019,DRUMLANRIG CASTLE,drumlanrig-castle,dumfriesshire,Met Office,55.272,-3.804,75,1980,1982
01023,ESKDALEMUIR,eskdalemuir,dumfriesshire,Met Office,55.312,-3.207,236,1910,2023
01024,BARGRENNAN,bargrennan,kirkcudbrightshire,Met Office,55.077,-4.569,110,1972,1998
01025,PALNURE NO 2,palnure-no-2,kirkcudbrightshire,Met Office,54.952,-4.419,15,1972,1985
01026,CLATTERINGSHAWS NO 2,clatteringshaws-no-2,kirkcudbrightshire,Met Office,55.075,-4.266,178,1972,2004
01027,GLENLEE,glenlee,kirkcudbrightshire,Met Office,55.099,-4.185,55,1972,2013
01028,DUNDEUGH,dundeugh,kirkcudbrightshire,Met Office,55.165,-4.202,119,1972,1981
01030,KIRKCUDBRIGHT NO 2,kirkcudbright-no-2,kirkcudbrightshire,Met Office,54.804,-4.052,3,1972,1974
01031,GIRDSTINGWOOD NO 2,girdstingwood-no-2,kirkcudbrightshire,Met Office,54.8,-3.958,91,1984,1989
01033,DUNDRENNAN,dundrennan,kirkcudbrightshire,Met Office,54.803,-4.008,113,1983,2023
01034,GLENLOCHAR BARRAGE,glenlochar-barrage,kirkcudbrightshire,Met Office,54.96,-3.982,47,1972,1997
01035,THREAVE,threave,kirkcudbrightshire,Met Office,54.926,-3.95,73,1994,2023
01037,CORSEWALL POINT,corsewall-point,wigtownshire,Met Office,55.008,-5.16,15,1984,1992
01039,WEST FREUGH,west-freugh,wigtownshire,Met Office,54.859,-4.935,11,1983,2023
01040,PENWHIRN,penwhirn,wigtownshire,Met Office,54.983,-4.929,166,1972,1997
01041,MULL OF GALLOWAY,mull-of-galloway,wigtownshire,Met Office,54.635,-4.857,78,1957,1988
01042,CREEBRIDGE,creebridge,wigtownshire,Met Office,54.96,-4.475,18,1986,2005
01043,WHITHORN,whithorn,wigtownshire,Met Office,54.703,-4.418,40,1982,1994
01044,NEWTON STEWART,newton-stewart,wigtownshire,Met Office,54.96,-4.491,46,1972,1982
01050,ST BEES HEAD,st-bees-head,cumbria,Met Office,54.513,-3.637,94,1983,1987
01051,SELLAFIELD,sellafield,cumbria,Met Office,54.415,-3.501,13,1972,1980
01053,SELLAFIELD NO 2,sellafield-no-2,cumbria,Met Office,54.426,-3.507,22,1980,1997
01054,ESKMEALS,eskmeals,cumbria,Met Office,54.325,-3.408,8,1979,2001
01055,ST BEES HEAD NO 2,st-bees-head-no-2,cumbria,Met Office,54.518,-3.615,125,1983,2023
01056,FRIZINGTON,frizington,cumbria,Met Office,54.551,-3.461,170,1991,2001
01057,GREYSOUTHEN,greysouthen,cumbria,Met Office,54.647,-3.443,69,1991,1997
01058,STAINBURN,stainburn,cumbria,Met Office,54.646,-3.525,34,1983,1991
01059,EAGLESFIELD,eaglesfield,cumbria,Met Office,54.639,-3.385,102,1982,1983
01060,KESWICK,keswick,cumbria,Met Office,54.614,-3.157,88,1983,2023
01061,ASPATRIA,aspatria,cumbria,Met Office,54.768,-3.316,62,1979,2003
01062,SILLOTH,silloth,cumbria,Met Office,54.87,-3.365,8,1957,1960
01063,"ULPHA, BLACK HALL",ulpha-black-hall,cumbria,Met Office,54.401,-3.174,210,1994,1999
01064,SEATOLLER,seatoller,cumbria,Met Office,54.513,-3.168,90,1990,1993
01066,DRUMBURGH,drumburgh,cumbria,Met Office,54.931,-3.158,7,1994,2019
01067,BLENCATHRA,blencathra,cumbria,Met Office,54.62,-3.081,250,1992,2023
01068,FELLSIDE NO 2,fellside-no-2,cumbria,Met Office,54.728,-3.081,285,1988,1992
01070,CARLISLE,carlisle,cumbria,Met Office,54.934,-2.964,28,1961,2023
01071,WHINS POND,whins-pond,cumbria,Met Office,54.669,-2.705,125,1989,1994
01072,PENTON,penton,cumbria,Met Office,55.086,-2.864,113,1992,2010
01073,NEWTON RIGG,newton-rigg,cumbria,Met Office,54.67,-2.788,169,1906,2021
01074,WARCOP RANGE,warcop-range,cumbria,Met Office,54.572,-2.413,227,1983,2023
01075,SPADEADAM,spadeadam,cumbria,Met Office,55.041,-2.629,274,1972,1973
01076,SPADEADAM NO 2,spadeadam-no-2,cumbria,Met Office,55.05,-2.554,285,1992,2023
01078,WALNEY ISLAND,walney-island,cumbria,Met Office,54.125,-3.258,15,1983,2023
01079,HEVERSHAM,heversham,cumbria,Met Office,54.242,-2.772,30,1973,1977
01080,LEVENS HALL,levens-hall,cumbria,Met Office,54.259,-2.778,7,1992,2023
01082,CASTERTON NO 2,casterton-no-2,cumbria,Met Office,54.209,-2.569,127,1990,2003
01083,SHAP,shap,cumbria,Met Office,54.502,-2.685,263,1988,2023
01084,GREAT DUN FELL,great-dun-fell,cumbria,Met Office,54.684,-2.45,847,1961,2002
01085,GREAT DUN FELL NO 2,great-dun-fell-no-2,cumbria,Met Office,54.684,-2.451,847,1994,2023
01086,MOOR HOUSE,moor-house,cumbria,Met Office,54.69,-2.377,556,1972,1980
01087,WIDDYBANK FELL,widdybank-fell,cumbria,Met Office,54.663,-2.284,513,1974,1995
01088,"SOUTHPORT, GREENBANK",southport-greenbank,merseyside,Met Office,53.622,-3.028,15,1988,2004
01090,"BLACKPOOL, SQUIRES GATE",blackpool-squires-gate,lancashire,Met Office,53.776,-3.038,10,1957,2023
01093,AIGBURTH (RTC),aigburth-rtc,merseyside,Met Office,53.36,-2.927,12,1972,1992
01094,SOUTHPORT NO 2,southport-no-2,merseyside,Met Office,53.653,-3.005,7,1987,1988
01095,SOUTHPORT,southport,merseyside,Met Office,53.679,-2.954,5,1972,1986
01096,AUGHTON,aughton,lancashire,Met Office,53.55,-2.916,54,1978,1996
01097,POULTON-LE-FYLDE,poulton-le-fylde,lancashire,Met Office,53.838,-2.995,12,1972,1975
01099,CARTMEL,cartmel,cumbria,Met Office,54.197,-2.95,35,1972,1980
01100,GRIZEDALE,grizedale,cumbria,Met Office,54.338,-3.021,91,1972,2007
01101,SPEKE,speke,merseyside,Met Office,53.332,-2.847,22,1957,1977
01102,ST HELENS,st-helens,merseyside,Met Office,53.438,-2.772,76,1973,1982
01103,LATHOM PARK,lathom-park,lancashire,Met Office,53.571,-2.817,55,1972,1997
01104,KIRKHAM,kirkham,lancashire,Met Office,53.804,-2.891,24,1972,1980
01105,HAZELRIGG,hazelrigg,lancashire,Met Office,54.014,-2.775,95,1976,2023
01107,BAILRIGG,bailrigg,lancashire,Met Office,54.005,-2.789,52,1972,1976
01109,RAINHILL,rainhill,merseyside,Met Office,53.4,-2.738,55,1991,2002
01111,"PRESTON, MOOR PARK",preston-moor-park,lancashire,Met Office,53.774,-2.705,33,1950,2023
01112,MYERSCOUGH,myerscough,lancashire,Met Office,53.854,-2.767,14,1987,2023
01115,WINTER HILL,winter-hill,lancashire,Met Office,53.626,-2.516,440,1993,2012
01117,BOLTON,bolton,greater-manchester,Met Office,53.6,-2.419,107,1889,1991
01118,DARWEN,darwen,lancashire,Met Office,53.69,-2.475,221,1921,1930
01119,STONYHURST,stonyhurst,lancashire,Met Office,53.845,-2.47,115,1884,2023
01120,MANCHESTER WEATHER CENTRE,manchester-weather-centre,greater-manchester,Met Office,53.483,-2.244,69,1974,1986
01121,SHUTTLEWORTH,shuttleworth,lancashire,Met Office,53.655,-2.289,235,1994,1998
01122,HELMSHORE,helmshore,lancashire,Met Office,53.68,-2.344,260,1972,1981
01124,NELSON (LANCS),nelson-lancs,lancashire,Met Office,53.842,-2.196,165,1972,1976
01125,ROCHDALE,rochdale,greater-manchester,Met Office,53.609,-2.179,110,1947,2023
01126,WYCOLLER,wycoller,lancashire,Met Office,53.844,-2.09,245,1994,2004
01128,BIDSTON,bidston,merseyside,Met Office,53.4,-3.075,60,1976,2001
01129,BRADELEY GREEN,bradeley-green,cheshire,Met Office,52.996,-2.687,115,1990,2003
01130,NESS GARDENS,ness-gardens,cheshire,Met Office,53.272,-3.047,38,1972,2011
01131,DELAMERE FOREST NO 2,delamere-forest-no-2,cheshire,Met Office,53.237,-2.707,68,1989,1996
01132,"NANTWICH, REASEHEATH HALL",nantwich-reaseheath-hall,cheshire,Met Office,53.086,-2.526,40,1988,2023
01133,WINNINGTON,winnington,cheshire,Met Office,53.268,-2.537,20,1972,1976
01134,KNUTSFORD,knutsford,cheshire,Met Office,53.301,-2.368,65,1994,2000
01135,RINGWAY,ringway,greater-manchester,Met Office,53.356,-2.281,69,1949,2004
01136,MACCLESFIELD,macclesfield,cheshire,Met Office,53.265,-2.136,143,1900,2005
01137,RHYL NO 2,rhyl-no-2,clwyd,Met Office,53.259,-3.509,77,1986,2023
01138,RHYL COASTGUARD,rhyl-coastguard,clwyd,Met Office,53.325,-3.488,15,1993,1993
01139,RHYL,rhyl,clwyd,Met Office,53.314,-3.501,9,1911,1978
01141,PRESTATYN,prestatyn,clwyd,Met Office,53.342,-3.412,4,1932,2023
01142,MOEL-Y-CRIO,moel-y-crio,clwyd,Met Office,53.22,-3.209,263,1986,2005
01143,HAWARDEN BRIDGE,hawarden-bridge,clwyd,Met Office,53.217,-3.029,5,1924,2004
01144,HAWARDEN AIRPORT,hawarden-airport,clwyd,Met Office,53.175,-2.986,11,1985,2023
01145,VALLEY,valley,gwynedd,Met Office,53.253,-4.536,10,1957,2023
01146,ANGLESEY: LLYN ALAW,anglesey-llyn-alaw,gwynedd,Met Office,53.339,-4.441,44,1974,1989
01147,AMLWCH,amlwch,gwynedd,Met Office,53.381,-4.357,114,1989,1999
01148,BETWS-Y-COED,betws-y-coed,clwyd,Met Office,53.097,-3.79,22,1976,2023
01149,COLWYN BAY,colwyn-bay,clwyd,Met Office,53.291,-3.715,36,1929,2023
01151,"COLWYN BAY, NURSERY GARDENS",colwyn-bay-nursery-gardens,clwyd,Met Office,53.293,-3.712,24,1972,1982
01153,RUTHIN,ruthin,clwyd,Met Office,53.116,-3.297,82,1972,2009
01154,"LOGGERHEADS, COLOMENDY CENTRE",loggerheads-colomendy-centre,clwyd,Met Office,53.149,-3.197,225,1972,2004
01155,LLANARMON DYFFRYN CEIRIOG,llanarmon-dyffryn-ceiriog,clwyd,Met Office,52.886,-3.256,265,1986,2023
01156,BWLCHGWYN,bwlchgwyn,clwyd,Met Office,53.06,-3.141,386,1972,1984
01157,WREXHAM,wrexham,clwyd,Met Office,53.051,-2.989,88,1972,1974
01158,BARDSEY ISLAND,bardsey-island,gwynedd,Met Office,52.75,-4.799,15,1963,1987
01159,MYNYDD RHIW,mynydd-rhiw,gwynedd,Met Office,52.824,-4.637,253,1987,2004
01160,BOTWNNOG,botwnnog,gwynedd,Met Office,52.851,-4.582,34,1972,1994
01161,ABERDARON,aberdaron,gwynedd,Met Office,52.789,-4.741,86,1993,2023
01162,CWMYSTRADLLYN,cwmystradllyn,gwynedd,Met Office,52.975,-4.151,204,1974,1982
01163,DINORWIC,dinorwic,gwynedd,Met Office,53.127,-4.112,296,1988,1991
01164,DINORWIC NO 2,dinorwic-no-2,gwynedd,Met Office,53.143,-4.108,333,1992,2023
01165,PEN-Y-FFRIDD,pen-y-ffridd,gwynedd,Met Office,53.21,-4.155,86,1972,1997
01166,PORTHMADOG,porthmadog,gwynedd,Met Office,52.915,-4.158,7,1993,2023
01167,SNOWDON SUMMIT,snowdon-summit,gwynedd,Met Office,53.068,-4.077,1040,1988,2000
01169,ABER,aber,gwynedd,Met Office,53.235,-4.024,18,1972,1983
01170,ABER NO 2,aber-no-2,gwynedd,Met Office,53.238,-4.015,15,1983,2002
01171,CAPEL CURIG NO 3,capel-curig-no-3,gwynedd,Met Office,53.094,-3.941,216,1993,2023
01172,LLANDUDNO,llandudno,gwynedd,Met Office,53.319,-3.837,4,1876,1957
01173,"ARTHOG, FEGLA FACH FARM",arthog-fegla-fach-farm,gwynedd,Met Office,52.718,-4.015,7,1988,2022
01176,TRAWSFYNYDD,trawsfynydd,gwynedd,Met Office,52.932,-3.943,193,1982,1995
01178,LLANYMAWDDWY,llanymawddwy,gwynedd,Met Office,52.755,-3.63,145,1987,1999
01179,NANTMOR,nantmor,gwynedd,Met Office,52.995,-4.082,49,1983,2002
01180,BALA,bala,gwynedd,Met Office,52.908,-3.584,163,1972,2023
01182,CORWEN,corwen,clwyd,Met Office,52.947,-3.418,144,1972,1983
01183,CYNWYD,cynwyd,clwyd,Met Office,52.951,-3.407,227,1983,2003
01184,"ABERHOSAN, RHOSWYDOL",aberhosan-rhoswydol,powys-north,Met Office,52.565,-3.712,244,1997,2003
01185,MACHYNLLETH,machynlleth,powys-north,Met Office,52.622,-3.843,76,1986,2020
01186,CEINWS,ceinws,powys-north,Met Office,52.638,-3.835,61,1972,1976
01187,MOEL CYNNEDD,moel-cynnedd,powys-north,Met Office,52.475,-3.705,358,1972,1998
01188,LLANFAIR CAEREINION,llanfair-caereinion,powys-north,Met Office,52.641,-3.283,243,1977,2006
01189,LAKE VYRNWY,lake-vyrnwy,powys-north,Met Office,52.758,-3.458,303,1972,1985
01190,LAKE VYRNWY NO 2,lake-vyrnwy-no-2,powys-north,Met Office,52.757,-3.465,360,1994,2023
01191,"LLANWDDYN, CWM COWNWY",llanwddyn-cwm-cownwy,powys-north,Met Office,52.749,-3.47,235,1988,2023
01192,NEWTOWN,newtown,powys-north,Met Office,52.5,-3.34,120,1988,1996
01193,FORDEN,forden,powys-north,Met Office,52.597,-3.153,91,1978,1980
01194,FORDEN NO 2,forden-no-2,powys-north,Met Office,52.613,-3.122,135,1981,1983
01195,FORDEN NO 3,forden-no-3,powys-north,Met Office,52.613,-3.125,150,1984,1987
01196,HOPE,hope,powys-north,Met Office,52.662,-3.112,91,1977,1978
01198,ABERPORTH,aberporth,dyfed,Met Office,52.14,-4.571,133,1941,2023
01199,TALGARREG,talgarreg,dyfed,Met Office,52.132,-4.301,198,1989,2003
01202,CORS FOCHNO,cors-fochno,dyfed,Met Office,52.507,-4.011,5,1979,1983
01203,ABERDOVEY NO 2,aberdovey-no-2,gwynedd,Met Office,52.55,-4.069,22,1983,1990
01204,SWYDDFFYNNON,swyddffynnon,dyfed,Met Office,52.272,-3.916,178,1972,2023
01205,GOGERDDAN,gogerddan,dyfed,Met Office,52.432,-4.02,31,1972,2023
01206,TREGARON NO 2,tregaron-no-2,dyfed,Met Office,52.245,-3.951,178,1975,1981
01209,TRAWSGOED,trawsgoed,dyfed,Met Office,52.344,-3.948,63,1983,2023
01210,LLETY-EVAN-HEN,llety-evan-hen,dyfed,Met Office,52.448,-3.925,290,1972,1977
01211,CWMYSTWYTH,cwmystwyth,dyfed,Met Office,52.359,-3.803,301,1972,2011
01212,SKOKHOLM ISLAND,skokholm-island,dyfed,Met Office,51.7,-5.275,34,1972,2003
01213,PENDINE,pendine,dyfed,Met Office,51.745,-4.509,5,1984,1999
01214,DALE FORT,dale-fort,dyfed,Met Office,51.703,-5.152,33,1972,2023
01215,MILFORD HAVEN CONSERVANCY BOARD,milford-haven-conservancy-board,dyfed,Met Office,51.709,-5.053,44,1964,2023
01216,BRAWDY,brawdy,dyfed,Met Office,51.88,-5.124,111,1974,1992
01217,ORIELTON,orielton,dyfed,Met Office,51.653,-4.96,60,1972,2020
01219,HAVERFORDWEST NO 2,haverfordwest-no-2,dyfed,Met Office,51.793,-4.966,12,1972,1974
01221,SCOLTON COUNTRY PARK,scolton-country-park,dyfed,Met Office,51.86,-4.922,75,1989,2023
01222,TENBY,tenby,dyfed,Met Office,51.669,-4.707,13,1977,2023
01223,WHITECHURCH,whitechurch,dyfed,Met Office,51.989,-4.679,129,1975,2023
01225,"ST CLEARS, SALEM ROAD",st-clears-salem-road,dyfed,Met Office,51.833,-4.493,40,1989,2013
01226,PEMBREY SANDS,pembrey-sands,dyfed,Met Office,51.714,-4.367,3,1993,2023
01227,SARON,saron,dyfed,Met Office,52.013,-4.37,152,1988,2023
01228,TOWY CASTLE,towy-castle,dyfed,Met Office,51.804,-4.313,88,1980,1992
01229,CARMARTHEN,carmarthen,dyfed,Met Office,51.841,-4.306,15,1972,1984
01230,CARMARTHEN MUSEUM,carmarthen-museum,dyfed,Met Office,51.866,-4.266,9,1987,1993
01231,LLANDEILO,llandeilo,dyfed,Met Office,51.86,-4.039,80,1994,2013
01232,ESGAIRWEN-UCHAF,esgairwen-uchaf,dyfed,Met Office,52.089,-4.032,332,1970,1973
01233,BRONYDD-MAWR,bronydd-mawr,powys-south,Met Office,51.964,-3.629,330,1985,2009
01234,BRYNAMMAN,brynamman,dyfed,Met Office,51.813,-3.861,183,1970,1985
01236,"RHANDIRMWYN, BWLCH-Y-FFIN",rhandirmwyn-bwlch-y-ffin,dyfed,Met Office,52.118,-3.761,240,1995,1998
01237,RHANDIRMWYN,rhandirmwyn,dyfed,Met Office,52.099,-3.825,168,1987,1994
01238,LLYSDINAM,llysdinam,powys-south,Met Office,52.216,-3.452,196,1988,2023
01239,CEFN-LLECH,cefn-llech,powys-south,Met Office,52.384,-3.537,317,1992,2002
01240,CENARTH,cenarth,powys-south,Met Office,52.383,-3.534,308,1976,1980
01241,CENARTH MILL,cenarth-mill,powys-south,Met Office,52.389,-3.503,282,1968,1975
01242,LLANDRINDOD WELLS,llandrindod-wells,powys-south,Met Office,52.235,-3.376,235,1972,1974
01243,VELINDRE,velindre,powys-south,Met Office,52.026,-3.187,152,1982,2020
01244,LLANDRINDOD WELLS NO 2,llandrindod-wells-no-2,powys-south,Met Office,52.244,-3.384,195,1974,1976
01245,"LLANGUNLLO, CEFNSURAN",llangunllo-cefnsuran,powys-south,Met Office,52.332,-3.133,310,1989,2023
01246,PRESTEIGNE,presteigne,powys-south,Met Office,52.283,-3.052,177,1988,1999
01247,LLWYN-ON RESR,llwyn-on-resr,mid-glamorgan,Met Office,51.791,-3.435,235,1972,1979
01248,"BRECON BEACONS, STOREY ARMS",brecon-beacons-storey-arms,powys-south,Met Office,51.873,-3.479,445,1987,1991
01249,LIBANUS,libanus,powys-south,Met Office,51.924,-3.489,331,1992,2023
01251,"LLANGENNY, CASTELL CORRYN",llangenny-castell-corryn,powys-south,Met Office,51.855,-3.101,135,1994,2002
01252,LLANGENNY,llangenny,gwent,Met Office,51.859,-3.104,122,1973,1994
01253,ST HARMON,st-harmon,powys-south,Met Office,52.342,-3.484,279,1983,1991
01254,WHITEFORD BURROWS,whiteford-burrows,west-glamorgan,Met Office,51.624,-4.258,5,1972,1981
01255,MUMBLES HEAD,mumbles-head,west-glamorgan,Met Office,51.566,-3.982,44,1958,2023
01256,PENMAEN,penmaen,west-glamorgan,Met Office,51.58,-4.121,87,1972,2009
01257,"SWANSEA, VICTORIA PARK",swansea-victoria-park,west-glamorgan,Met Office,51.613,-3.962,8,1907,2001
01258,PORT TALBOT,port-talbot,west-glamorgan,Met Office,51.567,-3.754,5,1972,1979
01259,NEATH,neath,west-glamorgan,Met Office,51.646,-3.859,62,1972,1995
01260,RHIWFAWR,rhiwfawr,west-glamorgan,Met Office,51.777,-3.836,310,1991,1996
01261,PORTHCAWL,porthcawl,mid-glamorgan,Met Office,51.481,-3.698,6,1972,1999
01262,TONDU,tondu,mid-glamorgan,Met Office,51.545,-3.617,90,1994,1997
01263,CYMMER,cymmer,west-glamorgan,Met Office,51.652,-3.63,230,1991,2001
01264,BRIDGEND NO 2,bridgend-no-2,mid-glamorgan,Met Office,51.505,-3.559,42,1974,1980
01266,ABERDARE FILTER,aberdare-filter,mid-glamorgan,Met Office,51.709,-3.451,186,1977,1979
01267,RHOOSE,rhoose,south-glamorgan,Met Office,51.401,-3.344,65,1957,1998
01268,CILFYNYDD,cilfynydd,mid-glamorgan,Met Office,51.636,-3.302,194,1974,1996
01269,CWMBARGOED,cwmbargoed,mid-glamorgan,Met Office,51.747,-3.333,372,1982,1992
01270,FLAT HOLM,flat-holm,south-glamorgan,Met Office,51.379,-3.123,15,1988,2013
01271,CARDIFF WEATHER CENTRE,cardiff-weather-centre,south-glamorgan,Met Office,51.478,-3.179,52,1982,2006
01272,"CARDIFF, BUTE PARK",cardiff-bute-park,south-glamorgan,Met Office,51.488,-3.189,9,1977,2023
01273,CARDIFF,cardiff,south-glamorgan,Met Office,51.507,-3.161,62,1972,1976
01274,TREDEGAR,tredegar,gwent,Met Office,51.769,-3.246,313,1972,1974
01275,"TREDEGAR, BRYN BACH PARK",tredegar-bryn-bach-park,gwent,Met Office,51.785,-3.276,380,1994,1995
01276,"TREDEGAR, BRYN BACH PARK NO 2",tredegar-bryn-bach-park-no-2,gwent,Met Office,51.784,-3.268,360,1995,2022
01277,NEWPORT (MONMOUTH),newport-monmouth,gwent,Met Office,51.558,-3.041,23,1972,1977
01278,"NEWPORT, CLEPPA PARK",newport-cleppa-park,gwent,Met Office,51.557,-3.044,19,1988,1989
01279,USK,usk,gwent,Met Office,51.713,-2.914,19,1972,2010
01280,PENHOW,penhow,gwent,Met Office,51.612,-2.851,100,1992,2013
01281,"CROSSWAY, HOME FARM",crossway-home-farm,gwent,Met Office,51.865,-2.804,138,1989,1996
01282,CRUMBLAND PLANTATION,crumbland-plantation,gwent,Met Office,51.718,-2.763,245,1972,1981
01283,LLANISHEN,llanishen,gwent,Met Office,51.729,-2.746,180,1989,2009
01284,HAWKRIDGE,hawkridge,somerset,Met Office,51.083,-3.605,314,1972,1992
01285,LISCOMBE,liscombe,somerset,Met Office,51.087,-3.609,348,1993,2023
01286,SIMONSBATH,simonsbath,somerset,Met Office,51.141,-3.742,381,1989,1992
01287,EXTON,exton,somerset,Met Office,51.094,-3.485,335,1973,1987
01288,MINEHEAD,minehead,somerset,Met Office,51.201,-3.467,8,1987,1995
01289,TIVINGTON,tivington,somerset,Met Office,51.201,-3.531,83,1989,1998
01290,"NETTLECOMBE, BIRDS HILL",nettlecombe-birds-hill,somerset,Met Office,51.118,-3.349,271,1972,2012
01291,NETTLECOMBE,nettlecombe,somerset,Met Office,51.131,-3.35,96,1972,2023
01292,BRYMORE SCHOOL,brymore-school,somerset,Met Office,51.149,-3.081,25,1978,1996
01293,CANNINGTON,cannington,somerset,Met Office,51.153,-3.066,25,1972,2005
01296,CRICKET MALHERBIE,cricket-malherbie,somerset,Met Office,50.909,-2.909,76,1972,1972
01297,TAUNTON,taunton,somerset,Met Office,51.008,-3.1,22,1985,1989
01298,WESTON-SUPER-MARE,weston-super-mare,avon,Met Office,51.364,-2.952,94,1972,1973
01299,WESTON-SUPER-MARE NO 2,weston-super-mare-no-2,avon,Met Office,51.364,-2.908,5,1985,1994
01300,"CREWKERNE, WADHAM SCHOOL",crewkerne-wadham-school,somerset,Met Office,50.89,-2.786,101,1976,1991
01302,YEOVILTON,yeovilton,somerset,Met Office,51.006,-2.643,20,1964,2023
01303,"GLASTONBURY, ST DUNSTANS SCHOOL",glastonbury-st-dunstans-school,somerset,Met Office,51.153,-2.718,15,1990,1993
01304,RODNEY STOKE,rodney-stoke,somerset,Met Office,51.248,-2.734,40,1972,2018
01305,LONG ASHTON,long-ashton,avon,Met Office,51.425,-2.669,51,1972,2002
01306,WEST CAMEL,west-camel,somerset,Met Office,51.02,-2.609,27,1972,1972
01307,"CASTLE CARY, GROVE MEAD",castle-cary-grove-mead,somerset,Met Office,51.08,-2.504,135,1989,2004
01308,DOWNSIDE ABBEY,downside-abbey,somerset,Met Office,51.255,-2.497,183,1972,2000
01309,WINCANTON,wincanton,somerset,Met Office,51.056,-2.424,113,1972,1983
01311,"BATH, BEECHEN CLIFF SCHOOL",bath-beechen-cliff-school,avon,Met Office,51.372,-2.359,114,1972,2005
01312,BATH,bath,avon,Met Office,51.386,-2.355,20,1904,1958
01314,"WEYMOUTH, WYKE REGIS",weymouth-wyke-regis,dorset,Met Office,50.595,-2.477,33,1993,2015
01315,"WEYMOUTH, WESTHAM",weymouth-westham,dorset,Met Office,50.615,-2.481,21,1972,1993
01316,PORTLAND ,portland,dorset,Met Office,50.566,-2.45,3,1983,1999
01317,LOWER KINGCOMBE,lower-kingcombe,dorset,Met Office,50.789,-2.634,122,1990,2009
01318,PORTLAND BILL LIGHTHOUSE,portland-bill-lighthouse,dorset,Met Office,50.514,-2.457,11,1968,1996
01319,ISLE OF PORTLAND,isle-of-portland,dorset,Met Office,50.522,-2.456,52,1968,2023
01321,BEAMINSTER,beaminster,dorset,Met Office,50.805,-2.758,58,1984,1989
01322,WINFRITH,winfrith,dorset,Met Office,50.682,-2.256,26,1972,1993
01323,WINTERBOURNE KINGSTON,winterbourne-kingston,dorset,Met Office,50.78,-2.211,59,1994,1998
01324,FONTMELL MAGNA,fontmell-magna,dorset,Met Office,50.951,-2.185,90,1988,2023
01325,SHAFTESBURY,shaftesbury,dorset,Met Office,51.004,-2.199,207,1972,1974
01326,SWANAGE,swanage,dorset,Met Office,50.614,-1.959,10,1931,2023
01328,POOLE S WKS,poole-s-wks,dorset,Met Office,50.744,-1.994,5,1972,2013
01331,VIRGINSTOW,virginstow,devon,Met Office,50.721,-4.288,168,1968,1973
01332,HARTLAND POINT,hartland-point,devon,Met Office,51.02,-4.524,95,1957,1983
01333,HARTLAND,hartland,devon,Met Office,50.991,-4.462,142,1983,1988
01334,GAWLISH,gawlish,devon,Met Office,51.016,-4.49,122,1989,2003
01335,LUNDY,lundy,devon,Met Office,51.161,-4.656,43,1983,1994
01336,"PLYMOUTH, MOUNTBATTEN",plymouth-mountbatten,devon,Met Office,50.355,-4.121,50,1949,2023
01337,PLYMOUTH HOE,plymouth-hoe,devon,Met Office,50.363,-4.141,36,1972,1980
01338,RUMLEIGH,rumleigh,devon,Met Office,50.491,-4.196,23,1978,1995
01339,TAVISTOCK,tavistock,devon,Met Office,50.553,-4.144,139,1972,1979
01340,"TAVISTOCK, KILWORTHY COLLEGE",tavistock-kilworthy-college,devon,Met Office,50.572,-4.145,192,1980,1983
01341,ROADFORD DAM,roadford-dam,devon,Met Office,50.686,-4.234,131,1988,1992
01342,MELBURY,melbury,devon,Met Office,50.959,-4.297,143,1979,1985
01344,NORTH HESSARY TOR,north-hessary-tor,devon,Met Office,50.549,-4.009,510,1968,2005
01345,"OKEHAMPTON, EAST OKEMENT FARM",okehampton-east-okement-farm,devon,Met Office,50.703,-3.977,408,1992,2023
01346,CHIVENOR,chivenor,devon,Met Office,51.089,-4.149,6,1957,2023
01347,"ILFRACOMBE, HOLIDAY PARC",ilfracombe-holiday-parc,devon,Met Office,51.2,-4.113,145,1994,1996
01348,ILFRACOMBE,ilfracombe,devon,Met Office,51.21,-4.12,8,1972,1991
01350,"PRINCETOWN, PRISON",princetown-prison,devon,Met Office,50.549,-4.001,453,1916,1999
01351,OKEHAMPTON,okehampton,devon,Met Office,50.718,-4.006,372,1982,1989
01352,NORTH WYKE,north-wyke,devon,Met Office,50.769,-3.904,177,1981,2023
01353,"BURRINGTON, COMMON HEAD",burrington-common-head,devon,Met Office,50.933,-3.987,199,1989,1999
01354,PRAWLE POINT,prawle-point,devon,Met Office,50.203,-3.721,59,1971,1980
01356,SALCOMBE NO 2,salcombe-no-2,devon,Met Office,50.24,-3.767,3,1991,1998
01357,BRIXHAM,brixham,devon,Met Office,50.397,-3.51,8,1992,2007
01358,CHAWLEIGH,chawleigh,devon,Met Office,50.896,-3.812,168,1980,1982
01359,CHELDON BARTON,cheldon-barton,devon,Met Office,50.906,-3.802,163,1972,1977
01360,"DARTINGTON, TIGLEY",dartington-tigley,devon,Met Office,50.428,-3.753,87,1994,1998
01361,SOUTH STOWFORD,south-stowford,devon,Met Office,51.147,-3.93,230,1994,1999
01362,SLAPTON,slapton,devon,Met Office,50.293,-3.652,32,1972,2023
01363,STRETE,strete,devon,Met Office,50.309,-3.633,125,1992,2000
01364,TOTNES NO 2,totnes-no-2,devon,Met Office,50.454,-3.696,82,1972,1980
01365,NEWTON ABBOT,newton-abbot,devon,Met Office,50.544,-3.655,83,1972,1976
01366,"BOVEY TRACEY, YARNER WOOD NO 2",bovey-tracey-yarner-wood-no-2,devon,Met Office,50.592,-3.717,198,1977,2008
01367,BERRY HEAD,berry-head,devon,Met Office,50.399,-3.484,58,2000,2023
01369,"TORQUAY, ABBEY PARK",torquay-abbey-park,devon,Met Office,50.465,-3.541,15,1930,2005
01370,CHUDLEIGH NO 2,chudleigh-no-2,devon,Met Office,50.61,-3.603,106,1992,1998
01371,TEIGNMOUTH,teignmouth,devon,Met Office,50.545,-3.495,3,1910,2023
01372,STARCROSS,starcross,devon,Met Office,50.63,-3.455,9,1972,1990
01373,CLYST HONITON,clyst-honiton,devon,Met Office,50.722,-3.439,22,1993,1997
01374,EXETER SOUTHAM,exeter-southam,devon,Met Office,50.718,-3.487,46,1972,1972
01375,WITHLEIGH,withleigh,devon,Met Office,50.903,-3.544,183,1990,2005
01376,"EXMOUTH, SALTERTON ROAD",exmouth-salterton-road,devon,Met Office,50.623,-3.394,59,1972,1990
01377,EXMOUTH,exmouth,devon,Met Office,50.629,-3.377,78,1990,2005
01378,EXETER AIRPORT,exeter-airport,devon,Met Office,50.731,-3.417,27,1968,1991
01379,SIDMOUTH,sidmouth,devon,Met Office,50.68,-3.24,10,1926,2017
01380,ROUSDON NO 2,rousdon-no-2,devon,Met Office,50.711,-3.0,150,1994,1998
01381,TWIST,twist,devon,Met Office,50.828,-3.009,183,1978,1993
01382,HEMYOCK,hemyock,devon,Met Office,50.909,-3.227,168,1978,2023
01383,DUNKESWELL AERODROME,dunkeswell-aerodrome,devon,Met Office,50.86,-3.24,252,1986,2023
01385,SCILLY: ST MARYS,scilly-st-marys,isles-of-scilly,Met Office,49.929,-6.303,51,1958,1995
01386,SCILLY: ST MARYS AIRPORT,scilly-st-marys-airport,isles-of-scilly,Met Office,49.915,-6.296,31,1985,2023
01387,SCILLY: ST MARYS AIRPORT NO 2,scilly-st-marys-airport-no-2,isles-of-scilly,Met Office,49.915,-6.295,45,1989,1993
01388,GWENNAP HEAD,gwennap-head,cornwall,Met Office,50.037,-5.681,66,1971,1992
01389,"PENZANCE, PENLEE GARDENS",penzance-penlee-gardens,cornwall,Met Office,50.118,-5.543,19,1912,2003
01390,GULVAL,gulval,cornwall,Met Office,50.132,-5.519,15,1972,1982
01391,DAVIDSTOW MOOR,davidstow-moor,cornwall,Met Office,50.641,-4.622,291,1993,2004
01392,ST IVES,st-ives,cornwall,Met Office,50.219,-5.476,10,1988,1992
01393,CULDROSE,culdrose,cornwall,Met Office,50.084,-5.257,76,1977,2023
01394,PENHALVEAN,penhalvean,cornwall,Met Office,50.192,-5.211,170,1991,1999
01395,CAMBORNE,camborne,cornwall,Met Office,50.218,-5.328,87,1978,2023
01396,ROSEWARNE,rosewarne,cornwall,Met Office,50.224,-5.306,76,1972,1989
01397,LIZARD,lizard,cornwall,Met Office,49.963,-5.208,73,1982,1992
01398,LIZARD LIGHTHOUSE,lizard-lighthouse,cornwall,Met Office,49.959,-5.202,55,1988,2003
01399,FALMOUTH,falmouth,cornwall,Met Office,50.152,-5.078,51,1916,1995
01400,PENDENNIS POINT,pendennis-point,cornwall,Met Office,50.145,-5.045,42,1988,2007
01401,TRELISSICK,trelissick,cornwall,Met Office,50.217,-5.033,39,1991,2001
01402,NEWQUAY,newquay,cornwall,Met Office,50.412,-5.081,53,1920,1982
01403,"NEWQUAY, NO 2",newquay-no-2,cornwall,Met Office,50.409,-5.067,32,1983,1998
01404,LADOCK,ladock,cornwall,Met Office,50.322,-4.964,30,1978,1983
01405,ST MAWGAN,st-mawgan,cornwall,Met Office,50.439,-4.998,103,1957,2008
01407,CONSTANTINE BAY,constantine-bay,cornwall,Met Office,50.531,-5.01,36,1979,1989
01408,HELIGAN,heligan,cornwall,Met Office,50.283,-4.807,70,1994,2000
01409,ST AUSTELL,st-austell,cornwall,Met Office,50.339,-4.787,94,1972,1975
01410,"ST AUSTELL, BETHEL",st-austell-bethel,cornwall,Met Office,50.346,-4.755,55,1975,1991
01411,DELABOLE,delabole,cornwall,Met Office,50.619,-4.725,201,1978,1982
01412,TREKNOW,treknow,cornwall,Met Office,50.646,-4.755,100,1992,2023
01413,FOWEY,fowey,cornwall,Met Office,50.339,-4.643,75,1972,1991
01415,"CARDINHAM, BODMIN",cardinham-bodmin,cornwall,Met Office,50.502,-4.667,200,1987,2023
01416,TREGASTICK,tregastick,cornwall,Met Office,50.411,-4.418,110,1978,1996
01417,BASTREET,bastreet,cornwall,Met Office,50.562,-4.481,233,1982,2004
01418,BUDE,bude,cornwall,Met Office,50.829,-4.546,15,1913,2023
01419,ST JOHNS,st-johns,cornwall,Met Office,50.631,-4.367,128,1972,1987
01420,NORTH TAMERTON,north-tamerton,cornwall,Met Office,50.754,-4.387,100,1994,2014
01421,SCILLY: ROUND ISLAND,scilly-round-island,isles-of-scilly,Met Office,49.979,-6.323,38,1983,1988
01422,ELLBRIDGE,ellbridge,cornwall,Met Office,50.447,-4.253,69,1972,1977
01424,MAGHERA,maghera,londonderry,Met Office,54.865,-6.71,141,1987,1989
01425,COOLKEERAGH POWER STATION,coolkeeragh-power-station,londonderry,Met Office,55.043,-7.251,3,1972,1986
01426,BOOM HALL,boom-hall,londonderry,Met Office,55.02,-7.305,33,1978,1997
01427,CARMONEY,carmoney,londonderry,Met Office,55.025,-7.211,73,1982,2004
01428,LOUGHERMORE FOREST,loughermore-forest,londonderry,Met Office,54.959,-7.089,174,1972,1985
01429,BALLYKELLY,ballykelly,londonderry,Met Office,55.057,-7.008,4,1957,2012
01430,"DUNGIVEN, BOVEVAGH",dungiven-bovevagh,londonderry,Met Office,54.971,-7.023,235,1986,1987
01431,"BANAGHER, CAUGH HILL",banagher-caugh-hill,londonderry,Met Office,54.886,-6.966,214,1972,2023
01432,AGHANLOO,aghanloo,londonderry,Met Office,55.073,-6.947,18,1972,1995
01433,MOYDAMLAGHT P STA,moydamlaght-p-sta,londonderry,Met Office,54.833,-6.848,178,1982,1993
01434,DERRYNOYD FOREST,derrynoyd-forest,londonderry,Met Office,54.802,-6.803,88,1972,1982
01435,LOUGH FEA,lough-fea,londonderry,Met Office,54.721,-6.815,225,1994,2023
01436,SOMERSET FOREST,somerset-forest,londonderry,Met Office,55.111,-6.684,43,1972,1978
01437,COLERAINE UNIVERSITY,coleraine-university,londonderry,Met Office,55.154,-6.678,23,1972,2003
01438,"CASTLEDAWSON, HILLHEAD",castledawson-hillhead,londonderry,Met Office,54.788,-6.536,30,1986,2000
01439,GARVAGH FOREST,garvagh-forest,londonderry,Met Office,54.984,-6.695,88,1972,1985
01440,MONEYDIG,moneydig,londonderry,Met Office,54.993,-6.61,34,1970,1977
01441,MOYOLA W WKS,moyola-w-wks,londonderry,Met Office,54.743,-6.518,17,1993,2004
01442,TRAAD POINT,traad-point,londonderry,Met Office,54.724,-6.515,16,1972,1972
01446,BALLYMONEY,ballymoney,antrim,Met Office,55.071,-6.525,55,1972,1977
01447,MOVANAGHER FISH FARM,movanagher-fish-farm,antrim,Met Office,54.986,-6.57,10,1989,2013
01448,PORTGLENONE,portglenone,antrim,Met Office,54.865,-6.458,64,1994,2023
01449,LISNAFILLAN,lisnafillan,antrim,Met Office,54.857,-6.326,38,1972,2005
01450,ALDERGROVE,aldergrove,antrim,Met Office,54.664,-6.225,63,1949,2023
01451,GREENMOUNT,greenmount,antrim,Met Office,54.697,-6.208,38,1972,1996
01452,ALTNAHINCH FILTERS,altnahinch-filters,antrim,Met Office,55.048,-6.255,213,1972,2023
01454,LISBURN FRIENDS SCHOOL,lisburn-friends-school,down,Met Office,54.517,-6.044,61,1972,1973
01456,"GARRON TOWER, ST MACNISSIS",garron-tower-st-macnissis,antrim,Met Office,55.042,-5.968,62,1987,2007
01457,CARNLOUGH,carnlough,antrim,Met Office,54.984,-5.993,12,1975,2005
01458,PARKMORE FOREST,parkmore-forest,antrim,Met Office,55.019,-6.12,235,1972,2003
01459,BEAGHS FOREST,beaghs-forest,antrim,Met Office,55.079,-6.181,248,1972,1974
01460,DUNGONNELL FILTERS NO 2,dungonnell-filters-no-2,antrim,Met Office,54.989,-6.144,268,1983,2013
01461,BLACK MOUNTAIN,black-mountain,antrim,Met Office,54.586,-6.024,295,1970,1972
01462,DIVIS MOUNTAIN,divis-mountain,antrim,Met Office,54.608,-6.009,363,1972,1986
01463,"BELFAST, UPPER FALLS",belfast-upper-falls,antrim,Met Office,54.578,-5.975,14,1989,1998
01464,"HYDE PARK, MALLUSK",hyde-park-mallusk,antrim,Met Office,54.673,-5.993,140,1973,1982
01465,OLDPARK FILTERS,oldpark-filters,antrim,Met Office,54.627,-5.949,58,1981,2007
01466,LOWTOWN NO 2,lowtown-no-2,antrim,Met Office,54.836,-6.015,271,1972,1980
01467,BALLYPATRICK FOREST,ballypatrick-forest,antrim,Met Office,55.181,-6.154,156,1972,2023
01469,"BELFAST, MALONE",belfast-malone,antrim,Met Office,54.553,-5.968,35,1972,1990
01470,"BELFAST, QUEENS UNIVERSITY ROOF",belfast-queens-university-roof,antrim,Met Office,54.585,-5.934,15,1972,1972
01471,ANDERSONSTOWN,andersonstown,antrim,Met Office,54.581,-5.996,64,1976,1979
01472,NEWTOWNABBEY,newtownabbey,antrim,Met Office,54.652,-5.925,32,1972,1981
01473,JORDANSTOWN,jordanstown,antrim,Met Office,54.688,-5.893,30,1981,1982
01474,"JORDANSTOWN, ROSSTULLA",jordanstown-rosstulla,antrim,Met Office,54.682,-5.886,10,1989,1996
01475,BELFAST NEWFORGE,belfast-newforge,down,Met Office,54.56,-5.941,36,1982,2023
01478,WOODBURN NORTH,woodburn-north,antrim,Met Office,54.744,-5.878,217,1972,1992
01479,BELMONT,belmont,antrim,Met Office,54.745,-5.776,82,1992,2005
01480,LARNE,larne,antrim,Met Office,54.852,-5.832,43,1989,2004
01481,KILROOT,kilroot,antrim,Met Office,54.732,-5.764,22,1972,1975
01482,KILROOT POWER STATION,kilroot-power-station,antrim,Met Office,54.727,-5.773,12,1975,1989
01484,BALLYLUMFORD,ballylumford,antrim,Met Office,54.843,-5.784,24,1972,1984
01485,NEWRY ABBEY,newry-abbey,down,Met Office,54.182,-6.334,10,1972,1976
01486,NEWRY S WKS,newry-s-wks,armagh,Met Office,54.16,-6.331,1,1977,1990
01487,NEWRY CARNBANE,newry-carnbane,down,Met Office,54.206,-6.351,8,1989,2007
01488,KILLOWEN,killowen,down,Met Office,54.077,-6.184,4,1997,2023
01489,HILLSBOROUGH,hillsborough,down,Met Office,54.453,-6.073,116,1972,2023
01490,HILLSBOROUGH MET OFFICE,hillsborough-met-office,down,Met Office,54.485,-6.098,38,1979,2003
01491,SILENT VALLEY,silent-valley,down,Met Office,54.127,-6.002,129,1977,2023
01492,KILKEEL,kilkeel,down,Met Office,54.058,-5.993,18,1970,1987
01493,MOURNE GRANGE,mourne-grange,down,Met Office,54.068,-6.042,44,1979,1983
01494,TRASSEY SLIEVENAMAN,trassey-slievenaman,down,Met Office,54.206,-6.006,220,1985,2023
01495,"BALLYKINE, ROCKVALE",ballykine-rockvale,down,Met Office,54.399,-5.93,125,1985,2004
01497,BRYANSFORD,bryansford,down,Met Office,54.228,-5.937,85,1979,2001
01498,"BELFAST, SHAWS BRIDGE",belfast-shaws-bridge,down,Met Office,54.548,-5.948,15,1978,1985
01499,"BELFAST, MILLTOWN",belfast-milltown,down,Met Office,54.549,-5.942,37,1972,1980
01500,ROSETTA,rosetta,down,Met Office,54.571,-5.919,24,1972,1979
01501,"BELFAST, RAVENHILL ROAD",belfast-ravenhill-road,down,Met Office,54.584,-5.91,10,1986,2023
01502,MURLOUGH,murlough,down,Met Office,54.245,-5.832,12,1972,2023
01503,TIMPANY,timpany,down,Met Office,54.363,-5.885,98,1972,1975
01504,KATESBRIDGE,katesbridge,down,Met Office,54.297,-6.111,91,1997,2023
01505,"SAINTFIELD, ROWALLANE",saintfield-rowallane,down,Met Office,54.447,-5.83,95,1985,2003
01506,"BELFAST, ROSEBANK",belfast-rosebank,down,Met Office,54.576,-5.868,47,1972,1982
01507,STORMONT CASTLE,stormont-castle,down,Met Office,54.603,-5.83,56,1972,2023
01508,CASTLEREAGH,castlereagh,down,Met Office,54.565,-5.871,122,1990,2023
01509,MAGHERALLY,magherally,down,Met Office,54.359,-6.196,97,1977,2023
01510,"DOWNPATRICK, KILLAVEES HOUSE",downpatrick-killavees-house,down,Met Office,54.33,-5.69,58,1985,1995
01511,"DOWNPATRICK, SAUL",downpatrick-saul,down,Met Office,54.346,-5.665,37,1991,1998
01512,DOWNPATRICK,downpatrick,down,Met Office,54.326,-5.712,26,1972,1990
01514,COMBER CEMETERY,comber-cemetery,down,Met Office,54.552,-5.733,11,1973,1975
01515,"HOLYWOOD, CROFT GARDENS",holywood-croft-gardens,down,Met Office,54.642,-5.824,35,1985,1986
01516,CREIGHTONS GREEN,creightons-green,down,Met Office,54.637,-5.785,119,1972,1977
01517,BALLYWATTICOCK,ballywatticock,down,Met Office,54.572,-5.657,6,1974,2023
